,Unnamed: 0,Area Name,Total 2016,Total 2021,Total 2026,Total 2031,Total 2036,GCCSA,Total Growth,Total Growth %,Lat,Lon,place_id,addr_1,addr-2,Confidence,Municipality,Suburb_geoapify,bbox_lat1,bbox_lat2,bbox_lon1,bbox_lon2
0,133.0,Abbotsford,8770.0,11197.0,12103.0,13074.0,14263.0,2GMEL,5493.0,0.626339795,-37.8045508,144.9988542,511d4f159df61f6240593efc4685fbe642c0f00101f901335d240000000000c00205,Abbotsford,Abbotsford,1.0,City of Yarra,Abbotsford,-37.812143,-37.79529,144.9913672,145.015835
1,951.0,Airport West,7903.0,8716.0,9480.0,10257.0,11000.0,2GMEL,3097.0,0.391876503,-37.7222576,144.8834942,5195e6a095451c624059cba4e1ef72dc42c0f00101f9015ba3240000000000c00205,Airport West,Airport West,1.0,City of Moonee Valley,Airport West,-37.73467,-37.710812,144.863831,144.893467
2,123.0,Albert Park,16490.0,18013.0,19094.0,19906.0,20797.0,2GMEL,4307.0,0.26118859899999997,-37.8452062,144.957105,51d23aaa9aa01e6240592fb07db72fec42c0f00101f9011595240000000000c00205,Albert Park,Albert Park,1.0,City of Port Phillip,Albert Park,-37.853647,-37.837092,144.942731,144.978942
3,107.0,Alphington - Fairfield,9434.0,10091.0,10702.0,11353.0,12046.0,2GMEL,2612.0,0.276870893,-37.7845032,145.0158191,51dea40e978120624059becdd1996ae442c0f00101f901a059240000000000c00205,Fairfield,Fairfield,1.0,City of Yarra,Fairfield,-37.803675,-37.765188,145.001139,145.027418
4,1076.0,Altona,13206.0,14245.0,15099.0,15926.0,16739.0,2GMEL,3533.0,0.267529911,-37.8602151,144.813703,5107b5dfda091a6240593f0345871bee42c0f00101f90144d9240000000000c00205,Altona,Altona,1.0,City of Hobsons Bay,Altona,-37.881996,-37.844518,144.777726,144.867667
5,1077.0,Altona Meadows,20106.0,20593.0,21088.0,21573.0,22063.0,2GMEL,1957.0,0.097334129,-37.8814419,144.7845482,5157a4d3041b196240597ce99216d3f042c0f00101f9014dd9240000000000c00205,Altona Meadows,Altona Meadows,1.0,City of Hobsons Bay,Altona Meadows,-37.900054,-37.859043,144.753634,144.808394
6,1078.0,Altona North,14787.0,16317.0,19616.0,22949.0,25727.0,2GMEL,10940.0,0.739839048,-37.8378229,144.8342853,5113e11577b21a62405981abe1c73deb42c0f00101f90140d9240000000000c00205,Altona North,Altona North,1.0,City of Hobsons Bay,Altona North,-37.852412,-37.82427,144.785132,144.867103
7,1063.0,Ardeer,4101.0,4407.0,4727.0,5079.0,5475.0,2GMEL,1374.0,0.335040234,-37.7758681,144.8014637,51cc8d3397a5196240593cc159a54fe342c0f00101f901eaf2240000000000c00205,Ardeer,Ardeer,1.0,City of Brimbank,Ardeer,-37.784123,-37.767243,144.791362,144.815355
8,,Albion,4101.0,4407.0,4727.0,5079.0,5475.0,2GMEL,1374.0,0.335040234,-37.7763803,144.8160713,5189168f411d1a6240591ce1fe6d60e342c0f00101f901e8f2240000000000c00205,Albion,Albion,1.0,City of Brimbank,Albion,-37.785371,-37.766122,144.805539,144.82792
9,130.0,Armadale,9619.0,10923.0,11681.0,12405.0,13173.0,2GMEL,3554.0,0.36947707700000004,-37.8567619,145.0206905,51d09a1f7fa920624059bb7aba5faaed42c0f00101f901328e240000000000c00205,Armadale,Armadale,1.0,City of Stonnington,Armadale,-37.866087,-37.849282,145.008935,145.029933
10,110.0,Ascot Vale,15497.0,16895.0,18400.0,19905.0,21440.0,2GMEL,5943.0,0.383493579,-37.7769563,144.9137235,51c6c210393d1d624059e975d54d73e342c0f00101f9019397240000000000c00205,Ascot Vale,Ascot Vale,1.0,City of Moonee Valley,Ascot Vale,-37.789662,-37.770033,144.895812,144.93708
11,139.0,Ashburton,8104.0,8368.0,8687.0,9014.0,9380.0,2GMEL,1276.0,0.15745311,-37.8673582,145.0806524,51018b57b494226240596e75ef9705ef42c0f00101f901de8d240000000000c00205,Ashburton,Ashburton,1.0,City of Boroondara,Ashburton,-37.875993,-37.8581,145.061566,145.093667
12,1054.0,Ashwood,9654.0,10559.0,11416.0,12283.0,13164.0,2GMEL,3510.0,0.36357986299999995,-37.866672,145.1022346,51a1f07e814523624059f12dac1befee42c0f00101f901e88d240000000000c00205,Ashwood,Ashwood,1.0,City of Monash,Ashwood,-37.874198,-37.856642,145.091823,145.112996
13,,Chadstone,4827.0,5280.0,5708.0,6142.0,6582.0,2GMEL,1755.0,0.36357986299999995,-37.8822799,145.1001365,5159147651342362405986353a8ceef042c0f00101f9016b90240000000000c00205,Chadstone,Chadstone,1.0,City of Monash,Chadstone,-37.892735,-37.872989,145.089383,145.110735
14,178.0,Aspendale Gardens,9427.0,9486.0,9553.0,9686.0,9884.0,2GMEL,457.0,0.048477777,-38.0221438,145.11984,511618b2bad5236240599367a89bd50243c0f00101f90197f3240000000000c00205,Aspendale Gardens,Aspendale Gardens,1.0,City of Kingston,Aspendale Gardens,-38.033793,-38.011918,145.100635,145.137298
15,140.0,Balwyn,16679.0,17305.0,17792.0,18327.0,18946.0,2GMEL,2267.0,0.13591942,-37.8091737,145.0833678,5143d1f2f2aa226240594424f90093e742c0f00101f9016760240000000000c00205,Balwyn,Balwyn,1.0,City of Boroondara,Balwyn,-37.818611,-37.800793,145.061357,145.10488
16,141.0,Balwyn North,21440.0,22096.0,22715.0,23491.0,24247.0,2GMEL,2807.0,0.130923507,-37.7919518,145.0842372,5169633612b222624059118134ad5ee542c0f00101f901cd5f240000000000c00205,Balwyn North,Balwyn North,1.0,City of Boroondara,Balwyn North,-37.804705,-37.776936,145.06252,145.108554
17,979.0,Bayswater,12584.0,13501.0,14547.0,15712.0,16999.0,2GMEL,4415.0,0.350842339,-37.8454443,145.2647667,513cb203f87828624059788bd18437ec42c0f00101f9015ba9240000000000c00205,Bayswater,Bayswater,1.0,City of Knox,Bayswater,-37.8595855,-37.833033,145.238287,145.287266
18,993.0,Bayswater North,12257.0,12703.0,13181.0,13704.0,14298.0,2GMEL,2041.0,0.166517092,-37.8255813,145.28219,5144a852b3072962405937d8e5a5ace942c0f00101f90168a9240000000000c00205,Bayswater North,Bayswater North,1.0,City of Maroondah,Bayswater North,-37.837917,-37.813272,145.258531,145.30583
19,1018.0,Beaconsfield - Officer,13612.0,25467.0,36250.0,43984.0,49252.0,2GMEL,35640.0,2.61827799,-38.0601977,145.4099219,51414d88141e2d624059b065e88eb40743c0f00101f901da24250000000000c00205,Officer,Officer,1.0,Shire of Cardinia,Officer,-38.083262,-38.013286,145.375867,145.441971
20,162.0,Beaumaris,14250.0,14916.0,15314.0,15710.0,16130.0,2GMEL,1880.0,0.131929825,-37.9822122,145.0389098,51cecfc3bf3e21624059b95d1e21b9fd42c0f00101f90112c9240000000000c00205,Beaumaris,Beaumaris,1.0,City of Bayside,Beaumaris,-37.996474,-37.970756,145.023796,145.054235
21,1006.0,Belgrave,5227.0,5217.0,5224.0,5240.0,5265.0,2GMEL,38.0,0.007269945,-37.912056,145.3552263,51bba58b035e2b6240596f0f4240bef442c0f00101f901f0fc240000000000c00205,Belgrave,Belgrave,1.0,Shire of Yarra Ranges,Belgrave,-37.925463,-37.89864,145.34003,145.371565
22,,Selby,5227.0,5217.0,5224.0,5240.0,5265.0,2GMEL,38.0,0.007269945,-37.9187608,145.3784097,51a7bfa8ee1b2c624059646c32f499f542c0f00101f901b202250000000000c00205,Selby,Selby,1.0,Shire of Yarra Ranges,Selby,-37.934036,-37.901251,145.359643,145.396767
23,,Bentleigh,52835.0,56344.0,60427.0,65105.0,68984.0,2GMEL,16149.0,0.305649664,-37.9185101,145.0409246,5143531b414f21624059d9452cbd91f542c0f00101f901699d240000000000c00205,Bentleigh,Bentleigh,1.0,City of Glen Eira,Bentleigh,-37.934728,-37.91081,145.022458,145.052364
24,,Berwick,103533.0,111218.0,119118.0,127705.0,135323.0,2GMEL,31790.0,0.307051858,-38.0403826,145.3481493,510234000a242b624059ea29cd412b0543c0f00101f901db0f250000000000c00205,Berwick,Berwick,1.0,City of Casey,Berwick,-38.079591,-38.004604,145.313312,145.38535
25,155.0,Blackburn,22291.0,23789.0,24899.0,26196.0,27533.0,2GMEL,5242.0,0.235162173,-37.8217009,145.152276,51e7feea71df24624059014cbe7e2de942c0f00101f9010678240000000000c00205,Blackburn,Blackburn,1.0,City of Whitehorse,Blackburn,-37.833951,-37.809144,145.136298,145.1677703
26,156.0,Blackburn South,11229.0,11430.0,11652.0,11980.0,12351.0,2GMEL,1122.0,0.09991985,-37.8388322,145.1487848,518a4457d8c22462405976ea80da5eeb42c0f00101f901f48d240000000000c00205,Blackburn South,Blackburn South,1.0,City of Whitehorse,Blackburn South,-37.84811,-37.830408,145.133173,145.160069
27,987.0,Boronia,22918.0,24174.0,25580.0,27123.0,28906.0,2GMEL,5988.0,0.26127934399999997,-37.8563043,145.2859658,51c9d8bfa126296240594bf619619bed42c0f00101f9010bc8240000000000c00205,Boronia,Boronia,1.0,City of Knox,Boronia,-37.874306,-37.833327,145.250369,145.317974
28,157.0,Box Hill,20839.0,25748.0,29766.0,33207.0,36258.0,2GMEL,15419.0,0.739910744,-37.8215116,145.1261267,51e074dc3a09246240596fa4c74a27e942c0f00101f9018860240000000000c00205,Box Hill,Box Hill,1.0,City of Whitehorse,Box Hill,-37.830401,-37.8126,145.112901,145.139453
29,158.0,Box Hill North,18466.0,19084.0,19583.0,20245.0,20938.0,2GMEL,2472.0,0.133867649,-37.8056831,145.1295748,51580c0d7a25246240594fb8b29f20e742c0f00101f9018b60240000000000c00205,Box Hill North,Box Hill North,1.0,City of Whitehorse,Box Hill North,-37.815424,-37.795327,145.115804,145.142635
30,1082.0,Braybrook,19224.0,21233.0,23543.0,25942.0,28665.0,2GMEL,9441.0,0.491104869,-37.7867076,144.8548451,51ab741ce45a1b624059e0c1aad5b2e442c0f00101f901f1ac240000000000c00205,Braybrook,Braybrook,1.0,City of Maribyrnong,Braybrook,-37.799539,-37.769768,144.841783,144.865933
31,163.0,Brighton,24353.0,25673.0,26367.0,27096.0,27915.0,2GMEL,3562.0,0.146265347,-37.9081962,144.9957991,515cfc1296dd1f624059fdace8c53ff442c0f00101f9019b9f240000000000c00205,Brighton,Brighton,1.0,City of Bayside,Brighton,-37.932788,-37.883273,144.980034,145.00868
32,164.0,Brighton East,16718.0,17274.0,17713.0,18196.0,18749.0,2GMEL,2031.0,0.121485824,-37.9171728,145.0163663,5135689e128620624059f06316eb65f542c0f00101f9019b9d240000000000c00205,Brighton East,Brighton East,1.0,City of Bayside,Brighton East,-37.933027,-37.899821,145.00449,145.034393
33,966.0,Broadmeadows,13916.0,15280.0,16847.0,18714.0,21013.0,2GMEL,7097.0,0.509988502,-37.6832769,144.9323037,5113ae916ed51d6240595fce119e75d742c0f00101f9018297240000000000c00205,Broadmeadows,Broadmeadows,1.0,City of Hume,Broadmeadows,-37.69468,-37.663095,144.903279,144.957002
34,102.0,Brunswick,27435.0,31237.0,33919.0,36489.0,39114.0,2GMEL,11679.0,0.42569710200000005,-37.7664715,144.9613103,51db79d10dc31e62405975e8f4bc1be242c0f00101f901735d240000000000c00205,Brunswick,Brunswick,1.0,City of Merri-bek,Brunswick,-37.779153,-37.754231,144.948727,144.976983
35,103.0,Brunswick East,11716.0,14933.0,16282.0,17791.0,19327.0,2GMEL,7611.0,0.649624445,-37.7688802,144.9776825,51e36bcf2c491f6240595ec598aa6ae242c0f00101f9014d5d240000000000c00205,Brunswick East,Brunswick East,1.0,City of Merri-bek,Brunswick East,-37.780073,-37.756921,144.970155,144.986849
36,104.0,Brunswick West,14523.0,16503.0,17161.0,17950.0,18767.0,2GMEL,4244.0,0.292226124,-37.7633334,144.9425563,517164d46b291e624059e578aae8b4e142c0f00101f9019263240000000000c00205,Brunswick West,Brunswick West,1.0,City of Merri-bek,Brunswick West,-37.776768,-37.751073,144.926719,144.95386
37,149.0,Bulleen,11565.0,12110.0,12726.0,13385.0,14118.0,2GMEL,2553.0,0.22075227,-37.7688992,145.0871992,519807fa55ca22624059d5f5fa496be242c0f00101f901f257240000000000c00205,Bulleen,Bulleen,1.0,City of Manningham,Bulleen,-37.782612,-37.751372,145.067197,145.104225
38,936.0,Bundoora,6456.0,6914.0,7382.0,7862.0,8356.0,2GMEL,1900.0,0.294299876,-37.6982468,145.0596757,51b67b03dde821624059b144b12660d942c0f00101f9017b59240000000000c00205,Bundoora,Bundoora,1.0,City of Banyule,Bundoora,-37.729176,-37.676475,145.02533,145.103656
39,1094.0,Burnside,4943.0,5422.0,6109.0,6339.0,6487.0,2GMEL,1544.0,0.312360914,-37.749374,144.753027,51294014cc1818624059823cbb7cebdf42c0f00101f9013efc240000000000c00205,Burnside,Burnside,1.0,City of Melton,Burnside,-37.763454,-37.73695,144.742005,144.762936
40,1095.0,Burnside Heights,6431.0,6842.0,7241.0,7550.0,7665.0,2GMEL,1234.0,0.19188306600000002,-37.7324225,144.7555804,51f56ff2b62d18624059622d3e05c0dd42c0f00101f90143fc240000000000c00205,Burnside Heights,Burnside Heights,1.0,City of Melton,Burnside Heights,-37.742002,-37.723957,144.747748,144.764096
41,159.0,Burwood,12900.0,15036.0,16225.0,17536.0,19035.0,2GMEL,6135.0,0.475581395,-37.849578,145.1113915,51ad31e884902362405957b3cef8beec42c0f00101f9010978240000000000c00205,Burwood,Burwood,1.0,City of Whitehorse,Burwood,-37.861087,-37.835978,145.093744,145.133485
42,160.0,Burwood East,10772.0,11722.0,13468.0,15131.0,16715.0,2GMEL,5943.0,0.551708132,-37.8535935,145.150423,511e32e543d024624059024a438d42ed42c0f00101f9019a8e240000000000c00205,Burwood East,Burwood East,1.0,City of Whitehorse,Burwood East,-37.862005,-37.845444,145.131405,145.169265
43,1064.0,Cairnlea,10206.0,11084.0,11592.0,11920.0,12216.0,2GMEL,2010.0,0.196942975,-37.7593157,144.7878098,51fccee5bc3519624059706bc14131e142c0f00101f9019cf3240000000000c00205,Cairnlea,Cairnlea,1.0,City of Brimbank,Cairnlea,-37.771158,-37.746633,144.775247,144.805915
44,142.0,Camberwell,22646.0,24118.0,25376.0,26721.0,28157.0,2GMEL,5511.0,0.243354235,-37.8384623,145.0740767,51a97c19d65e22624059e8b68ebb52eb42c0f00101f901f95f240000000000c00205,Camberwell,Camberwell,1.0,City of Boroondara,Camberwell,-37.850827,-37.820448,145.053137,145.098154
45,967.0,Campbellfield,8561.0,8704.0,8911.0,9169.0,9569.0,2GMEL,1008.0,0.117743254,-37.6641298,144.959583,51865968e7b41e62405946a68d3402d542c0f00101f901cb8d240000000000c00205,Campbellfield,Campbellfield,1.0,City of Hume,Campbellfield,-37.691005,-37.6414,144.934777,144.977766
46,,Coolaroo,8561.0,8704.0,8911.0,9169.0,9569.0,2GMEL,1008.0,0.117743254,-37.6567594,144.9345853,51515a6e1fe81d624059982b28b110d442c0f00101f901f098240000000000c00205,Coolaroo,Coolaroo,1.0,City of Hume,Coolaroo,-37.666462,-37.640692,144.922081,144.946897
47,114.0,Carlton,20242.0,25116.0,26747.0,28487.0,30262.0,2GMEL,10020.0,0.495010374,-37.8004228,144.9684343,5164daed69fd1e624059837c1a4174e642c0f00101f901785d240000000000c00205,Carlton,Carlton,1.0,City of Melbourne,Carlton,-37.807923,-37.79226,144.958471,144.975716
48,134.0,Carlton North,9058.0,9209.0,9337.0,9471.0,9718.0,2GMEL,660.0,0.072863767,-37.7845585,144.9728553,51b02770a1211f62405940a6b5696ce442c0f00101f901765d240000000000c00205,Carlton North,Carlton North,1.0,City of Yarra,Carlton North,-37.793226,-37.778043,144.958885,144.978136
49,169.0,Carnegie,19091.0,21350.0,22840.0,24118.0,25473.0,2GMEL,6382.0,0.334293646,-37.8933729,145.0559135,51f5bc1b0bca21624059fc500e0b5af242c0f00101f9010595240000000000c00205,Carnegie,Carnegie,1.0,City of Glen Eira,Carnegie,-37.906499,-37.88102,145.04469,145.067459
50,1096.0,Caroline Springs,20968.0,21924.0,22442.0,22721.0,22997.0,2GMEL,2029.0,0.09676650099999999,-37.7345608,144.7371975,512d26361f971762405938769a1606de42c0f00101f901ac00250000000000c00205,Caroline Springs,Caroline Springs,1.0,City of Melton,Caroline Springs,-37.759443,-37.703304,144.72371,144.750616
51,180.0,Patterson Lakes,6056.0,6404.0,6756.0,7118.0,7503.0,2GMEL,1447.0,0.238936592,-38.0694493,145.1432329,51c2a6295d9524624059741df4b6e30843c0f00101f901c100250000000000c00205,Patterson Lakes,Patterson Lakes,1.0,City of Kingston,Patterson Lakes,-38.083451,-38.05158,145.132009,145.156254
52,,Carrum,6056.0,6404.0,6756.0,7118.0,7503.0,2GMEL,1447.0,0.238936592,-38.0767264,145.1280098,51291202a81824624059b25eb12bd20943c0f00101f901c300250000000000c00205,Carrum,Carrum,1.0,City of Kingston,Carrum,-38.085061,-38.069162,145.119837,145.136208
53,1109.0,Carrum Downs,21549.0,22951.0,24262.0,25610.0,26996.0,2GMEL,5447.0,0.25277275,-38.0927904,145.1758001,5146048827a025624059feb04a8ee00b43c0f00101f9011401250000000000c00205,Carrum Downs,Carrum Downs,1.0,City of Frankston,Carrum Downs,-38.126773,-38.067395,145.148873,145.203087
54,170.0,Caulfield - North,22288.0,24010.0,25734.0,27346.0,28751.0,2GMEL,6463.0,0.28997666899999996,-37.870828,145.0218005,512b51f696b2206240597638ba4a77ef42c0f00101f9019e8e240000000000c00205,Caulfield North,Caulfield North,1.0,City of Glen Eira,Caulfield North,-37.881393,-37.860225,145.007174,145.040152
55,171.0,Caulfield - South,18393.0,19037.0,19714.0,20393.0,21128.0,2GMEL,2735.0,0.148697874,-37.894699,145.0249323,51a6a3d23ecc20624059c861307f85f242c0f00101f901eb98240000000000c00205,Caulfield South,Caulfield South,1.0,City of Glen Eira,Caulfield South,-37.903287,-37.886034,145.012214,145.037657
56,181.0,Chelsea,14833.0,15915.0,16805.0,17695.0,18637.0,2GMEL,3804.0,0.256455201,-38.0497386,145.121407,512dd0ee90e223624059a62c9ed55d0643c0f00101f9018afb240000000000c00205,Chelsea,Chelsea,1.0,City of Kingston,Chelsea,-38.06013,-38.039166,145.110021,145.133213
57,182.0,Chelsea Heights,5538.0,5614.0,5744.0,5933.0,6155.0,2GMEL,617.0,0.11141206199999999,-38.0395381,145.132786,51bceb6cc83f2462405916399f950f0543c0f00101f90189fb240000000000c00205,Chelsea Heights,Chelsea Heights,1.0,City of Kingston,Chelsea Heights,-38.054995,-38.025384,145.123085,145.144567
58,,Cheltenham,34912.0,39324.0,43072.0,46541.0,50101.0,2GMEL,15189.0,0.435065307,-37.9634181,145.0615668,519f10f05af821624059eeefc74851fb42c0f00101f901f6ac240000000000c00205,Cheltenham,Cheltenham,1.0,City of Kingston,Cheltenham,-37.976278,-37.947632,145.027258,145.093178
59,1007.0,Chirnside Park,10266.0,11944.0,13032.0,14088.0,15022.0,2GMEL,4756.0,0.463276836,-37.7385835,145.3143181,514f01d5e40e2a624059bfee74e789de42c0f00101f901f7ac240000000000c00205,Chirnside Park,Chirnside Park,1.0,Shire of Yarra Ranges,Chirnside Park,-37.771659,-37.712187,145.286941,145.342735
60,1043.0,Clarinda - Oakleigh South,12323.0,12445.0,12601.0,12828.0,13125.0,2GMEL,802.0,0.065081555,-37.9248257,145.0921745,51cee0ef17f3226240590a0044b060f642c0f00101f901c29d240000000000c00205,Oakleigh South,Oakleigh South,1.0,City of Monash,Oakleigh South,-37.944458,-37.909515,145.079533,145.113266
61,1055.0,Clayton,23672.0,28152.0,31229.0,34030.0,37195.0,2GMEL,13523.0,0.57126563,-37.9173212,145.1304242,516c335f6f2c24624059b8f6f4c76af542c0f00101f9018b9d240000000000c00205,Clayton,Clayton,1.0,City of Monash,Clayton,-37.931386,-37.899152,145.107521,145.151616
62,1044.0,Clayton South,13296.0,14335.0,16445.0,19340.0,20790.0,2GMEL,7494.0,0.563628159,-37.9430924,145.125236,510589edee0124624059968d7340b7f842c0f00101f901b2a8240000000000c00205,Clayton South,Clayton South,1.0,City of Kingston,Clayton South,-37.961478,-37.927429,145.107109,145.141898
63,105.0,Coburg,27802.0,30690.0,33085.0,35805.0,38578.0,2GMEL,10776.0,0.387598015,-37.7449752,144.9643314,51303086cddb1e624059602aec585bdf42c0f00101f901ee86240000000000c00205,Coburg,Coburg,1.0,City of Merri-bek,Coburg,-37.757298,-37.732558,144.946097,144.983291
64,960.0,Coburg North,8112.0,9472.0,10680.0,11950.0,13337.0,2GMEL,5225.0,0.644107495,-37.7243476,144.9675198,51706715ecf51e624059d277126cb7dc42c0f00101f901766b240000000000c00205,Coburg North,Coburg North,1.0,City of Merri-bek,Coburg North,-37.736003,-37.718145,144.949464,144.985832
65,135.0,Collingwood,9235.0,10988.0,11993.0,13212.0,14598.0,2GMEL,5363.0,0.580725501,-37.802104,144.9881387,512f0d0dd59e1f624059d2fe0758abe642c0f00101f9014e5d240000000000c00205,Collingwood,Collingwood,1.0,City of Yarra,Collingwood,-37.8098688,-37.793896,144.982553,144.993747
66,,Craigieburn,52754.0,67986.0,76319.0,80399.0,83491.0,2GMEL,30737.0,0.582647761,-37.5901421,144.9108265,5191ba9d7d251d62405913bfbdc689cb42c0f00101f901b3a5240000000000c00205,Craigieburn,Craigieburn,1.0,City of Hume,Craigieburn,-37.622633,-37.540121,144.8795448,144.965563
67,1033.0,Cranbourne,20888.0,21912.0,23126.0,24585.0,26262.0,2GMEL,5374.0,0.257276905,-38.1087442,145.2834004,518c35b79d112962405999507754eb0d43c0f00101f9014a0a250000000000c00205,Cranbourne,Cranbourne,1.0,City of Casey,Cranbourne,-38.144837,-38.08072,145.249226,145.295404
68,1034.0,Cranbourne East,26754.0,60536.0,85547.0,105606.0,118601.0,2GMEL,91847.0,3.433019362,-38.1080912,145.3056221,51ea8dffa7c729624059217eb4eed50d43c0f00101f9010125250000000000c00205,Cranbourne East,Cranbourne East,1.0,City of Casey,Cranbourne East,-38.141713,-38.084514,145.288241,145.324895
69,1035.0,Cranbourne North,20985.0,25956.0,29473.0,31901.0,33363.0,2GMEL,12378.0,0.589849893,-38.0775184,145.2989039,51b364e99e90296240594c6b781fec0943c0f00101f901440a250000000000c00205,Cranbourne North,Cranbourne North,1.0,City of Casey,Cranbourne North,-38.089242,-38.065814,145.262102,145.335321
70,1036.0,Cranbourne South,9116.0,16849.0,28663.0,41613.0,54603.0,2GMEL,45487.0,4.989798157,-38.1577683,145.2624214,51a85890c165286240593a6c6cc0311443c0f00101f901530a250000000000c00205,Cranbourne South,Cranbourne South,1.0,City of Casey,Cranbourne South,-38.176717,-38.121693,145.221735,145.291248
71,1037.0,Cranbourne West,15685.0,21371.0,25296.0,27530.0,29026.0,2GMEL,13341.0,0.8505578579999999,-38.102241,145.2517182,51db9953130e28624059b9a7ab3b160d43c0f00101f901480a250000000000c00205,Cranbourne West,Cranbourne West,1.0,City of Casey,Cranbourne West,-38.124051,-38.077657,145.230532,145.271095
72,994.0,Croydon Hills,18752.0,19046.0,19403.0,19842.0,20361.0,2GMEL,1609.0,0.085804181,-37.7759541,145.2671081,51e53f49268c286240593b59c57652e342c0f00101f9014ba0240000000000c00205,Croydon Hills,Croydon Hills,1.0,City of Maroondah,Croydon Hills,-37.78357,-37.765171,145.256054,145.276174
73,,Croydon,53137.0,55974.0,58824.0,61916.0,65291.0,2GMEL,12154.0,0.22872951100000002,-37.796309,145.2806024,51bb65e2b1fa2862405957410c74ede542c0f00101f901b4ac240000000000c00205,Croydon,Croydon,1.0,City of Maroondah,Croydon,-37.81339,-37.769276,145.254159,145.308843
74,1045.0,Dandenong,32700.0,36325.0,40750.0,45551.0,50674.0,2GMEL,17974.0,0.549663609,-37.98749,145.2147923,51d8fd1994df266240594390831266fe42c0f00101f901d8f2240000000000c00205,Dandenong,Dandenong,1.0,City of Greater Dandenong,Dandenong,-38.003548,-37.967644,145.192098,145.235681
75,1046.0,Dandenong North,23684.0,24230.0,24732.0,25331.0,25999.0,2GMEL,2315.0,0.09774531300000001,-37.9558319,145.2143234,519038bfbcdb266240599d7c1fb358fa42c0f00101f901d7f2240000000000c00205,Dandenong North,Dandenong North,1.0,City of Greater Dandenong,Dandenong North,-37.972348,-37.937793,145.194896,145.234184
76,1065.0,Deer Park,27536.0,29012.0,29707.0,30253.0,30748.0,2GMEL,3212.0,0.11664729800000001,-37.7686602,144.7713077,51e5547c8dae18624059505e1a7563e242c0f00101f90182fb240000000000c00205,Deer Park,Deer Park,1.0,City of Brimbank,Deer Park,-37.784299,-37.74977,144.7547779,144.795284
77,1066.0,Delahey,8841.0,8903.0,8997.0,9155.0,9378.0,2GMEL,537.0,0.060739735,-37.7198138,144.7773228,51ed8d10d4df18624059d01acddb22dc42c0f00101f90183fb240000000000c00205,Delahey,Delahey,1.0,City of Brimbank,Delahey,-37.727964,-37.709728,144.764045,144.793291
78,1047.0,Dingley Village,10611.0,10840.0,11051.0,11270.0,11492.0,2GMEL,881.0,0.083027047,-37.9755762,145.1256478,510ffa884e0524624059c3e050aedffc42c0f00101f9010fc8240000000000c00205,Dingley Village,Dingley Village,1.0,City of Kingston,Dingley Village,-37.990882,-37.959242,145.109249,145.14601
79,115.0,Docklands,11832.0,18970.0,24820.0,27256.0,29157.0,2GMEL,17325.0,1.464249493,-37.8175423,144.9394923,5101eb2752101e6240595ecce039a5e842c0f00101f901ad95240000000000c00205,Docklands,Docklands,1.0,City of Melbourne,Docklands,-37.827023,-37.809249,144.920056,144.955992
80,150.0,Doncaster,21885.0,25778.0,28803.0,31313.0,33158.0,2GMEL,11273.0,0.515101668,-37.7848299,145.1238431,51ba0ace85f62362405923b6604e75e442c0f00101f901756b240000000000c00205,Doncaster,Doncaster,1.0,City of Manningham,Doncaster,-37.798797,-37.767267,145.099654,145.145328
81,,Doncaster East,29924.0,32236.0,34013.0,35642.0,37352.0,2GMEL,7428.0,0.248228846,-37.7788744,145.1638815,516c5d6a843e2562405987d80528b2e342c0f00101f9011678240000000000c00205,Doncaster East,Doncaster East,1.0,City of Manningham,Doncaster East,-37.80249,-37.74912,145.142326,145.184237
82,991.0,Donvale,16715.0,16943.0,17208.0,17526.0,17897.0,2GMEL,1182.0,0.070714927,-37.7898094,145.1914915,51c93ec8b220266240596589737918e542c0f00101f901cf8d240000000000c00205,Donvale,Donvale,1.0,City of Manningham,Donvale,-37.81178,-37.761641,145.167761,145.221305
83,,Park Orchards,8358.0,8472.0,8604.0,8763.0,8949.0,2GMEL,591.0,0.07071069599999999,-37.7756215,145.2162348,513a483e65eb266240598849b89047e342c0f00101f901b98e240000000000c00205,Park Orchards,Park Orchards,1.0,City of Manningham,Park Orchards,-37.792445,-37.759471,145.190376,145.23636
84,943.0,Doreen,21801.0,29130.0,31384.0,32343.0,32974.0,2GMEL,11173.0,0.5124994270000001,-37.5963874,145.1428928,51afdaeb9392246240598c5f1d6c56cc42c0f00101f9017e90240000000000c00205,Doreen,Doreen,1.0,Shire of Nillumbik,Doreen,-37.626944,-37.569421,145.102703,145.186936
85,1026.0,Doveton,11867.0,12751.0,13613.0,14635.0,15913.0,2GMEL,4046.0,0.340945479,-37.9887542,145.2385975,51096d3997a2276240592e64647f8ffe42c0f00101f90147f9240000000000c00205,Doveton,Doveton,1.0,City of Casey,Doveton,-38.001696,-37.965665,145.226571,145.25442
86,1116.0,Dromana,11454.0,12899.0,13947.0,15014.0,16128.0,2GMEL,4674.0,0.408067051,-38.3418285,144.9655838,518451ff0fe61e6240599d2b4a09c12b43c0f00101f901885a250000000000c00205,Dromana,Dromana,1.0,Shire of Mornington Peninsula,Dromana,-38.359302,-38.304226,144.937249,145.064662
87,116.0,East Melbourne,5475.0,6188.0,6519.0,6904.0,7300.0,2GMEL,1825.0,0.333333333,-37.812498,144.9858851,51a3c3e85e8c1f6240595f0839efffe742c0f00101f9013562240000000000c00205,East Melbourne,East Melbourne,1.0,City of Melbourne,East Melbourne,-37.823119,-37.807728,144.971363,144.9913512
88,184.0,Edithvale,6688.0,6959.0,7233.0,7506.0,7815.0,2GMEL,1127.0,0.168510766,-38.0375588,145.1149321,5157581586ad23624059a8d60cbace0443c0f00101f90186fb240000000000c00205,Edithvale,Edithvale,1.0,City of Kingston,Edithvale,-38.045971,-38.029545,145.104347,145.125911
89,,Aspendale,6688.0,6959.0,7233.0,7506.0,7815.0,2GMEL,1127.0,0.168510766,-38.0219105,145.1024159,51e5a2b5fd4623624059317898f6cd0243c0f00101f90199f3240000000000c00205,Aspendale,Aspendale,1.0,City of Kingston,Aspendale,-38.034901,-38.009169,145.084326,145.118447
90,172.0,Elsternwick,12110.0,12955.0,13705.0,14425.0,15242.0,2GMEL,3132.0,0.258629232,-37.8858425,145.0070152,5166d2f077392062405915747b4963f142c0f00101f9019497240000000000c00205,Elsternwick,Elsternwick,1.0,City of Glen Eira,Elsternwick,-37.896685,-37.876917,144.996745,145.01631
91,446.0,Eltham,24008.0,24354.0,24743.0,25197.0,25717.0,2GMEL,1709.0,0.071184605,-37.7175064,145.1601523,51225cb7f71f25624059d955ed3fd7db42c0f00101f9019060240000000000c00205,Eltham,Eltham,1.0,Shire of Nillumbik,Eltham,-37.74089,-37.688398,145.131606,145.194983
92,124.0,Elwood,16382.0,16959.0,17497.0,18162.0,18905.0,2GMEL,2523.0,0.154010499,-37.8788568,144.9855487,51b1636d9d891f62405901ef2e617ef042c0f00101f901b299240000000000c00205,Elwood,Elwood,1.0,City of Port Phillip,Elwood,-37.891737,-37.870301,144.974464,144.997052
93,1020.0,Emerald,9290.0,9545.0,9809.0,10085.0,10392.0,2GMEL,1102.0,0.118622174,-37.9321008,145.4407216,5181542f641a2e624059a8493a144ff742c0f00101f9011c17250000000000c00205,Emerald,Emerald,1.0,Shire of Cardinia,Emerald,-37.982983,-37.881924,145.382168,145.486696
94,,Cockatoo,9290.0,9545.0,9809.0,10085.0,10392.0,2GMEL,1102.0,0.118622174,-37.9299135,145.5127551,516e2b627d6830624059f04dd36707f742c0f00101f901852b250000000000c00207,Melbourne VIC 3781,Melbourne VIC 3781,1.0,Shire of Cardinia,,,,,
95,,Endeavour Hills,26659.0,26536.0,26605.0,26818.0,27148.0,2GMEL,489.0,0.018342774,-37.9702665,145.2563443,518320f6f83328624059c3f352b131fc42c0f00101f901b4f3240000000000c00205,Endeavour Hills,Endeavour Hills,1.0,City of Casey,Endeavour Hills,-37.996118,-37.9418953,145.229194,145.282505
96,,Epping,33912.0,43059.0,46370.0,50191.0,52241.0,2GMEL,18329.0,0.540487143,-37.639111,145.0266224,51ea2a3817da20624059c6c1a563ced142c0f00101f9011987240000000000c00205,Epping,Epping,1.0,City of Whittlesea,Epping,-37.661433,-37.615294,144.952795,145.066194
97,111.0,Essendon,28946.0,31880.0,33686.0,35810.0,37989.0,2GMEL,9043.0,0.312409314,-37.7498293,144.9109062,512857c224261d624059928a1068fadf42c0f00101f9010495240000000000c00205,Essendon,Essendon,1.0,City of Moonee Valley,Essendon,-37.7611179,-37.737328,144.889476,144.935049
98,954.0,Essendon West,7250.0,7966.0,8584.0,9263.0,10006.0,2GMEL,2756.0,0.38013793100000004,-37.7528304,144.8845846,5173f15c844e1c624059a1b71dbf5ce042c0f00101f90115a0240000000000c00205,Essendon West,Essendon West,1.0,City of Moonee Valley,Essendon West,-37.761963,-37.747882,144.877065,144.890431
99,961.0,Fawkner,14460.0,15544.0,16582.0,17596.0,18685.0,2GMEL,4225.0,0.292185339,-37.7052065,144.9696144,516237c714071f6240599c36e33444da42c0f00101f9013587240000000000c00205,Fawkner,Fawkner,1.0,City of Merri-bek,Fawkner,-37.7201904,-37.689425,144.956284,144.982511
100,,Ferntree Gully,29567.0,30392.0,31185.0,32026.0,33015.0,2GMEL,3448.0,0.11661649800000001,-37.8840562,145.2817304,513fc978ef0329624059bc69e9c028f142c0f00101f90135d9240000000000c00205,Ferntree Gully,Ferntree Gully,1.0,City of Knox,Ferntree Gully,-37.905302,-37.867047,145.25565,145.308509
101,136.0,Fitzroy,11259.0,12107.0,13059.0,13980.0,14970.0,2GMEL,3711.0,0.329602984,-37.8010382,144.9792611,51d7d75f1b561f62405961ec736b88e642c0f00101f9015c5d240000000000c00205,Fitzroy,Fitzroy,1.0,City of Yarra,Fitzroy,-37.808922,-37.792913,144.973188,144.985143
102,137.0,Fitzroy North,13129.0,14019.0,14865.0,15733.0,16675.0,2GMEL,3546.0,0.270089116,-37.7833316,144.9837074,51a9faf0877a1f62405930f6b93544e442c0f00101f901345d240000000000c00205,Fitzroy North,Fitzroy North,1.0,City of Yarra,Fitzroy North,-37.793896,-37.773001,144.97574,144.9956
103,,Flemington,10825.0,11875.0,13769.0,16524.0,18160.0,2GMEL,7335.0,0.6775981520000001,-37.7867587,144.9193668,51e760ec736b1d624059f72b5382b4e442c0f00101f9018697240000000000c00205,Flemington,Flemington,1.0,City of Melbourne,Flemington,-37.795156,-37.77939,144.902609,144.940255
104,1117.0,Flinders,5642.0,5693.0,5797.0,5937.0,6110.0,2GMEL,468.0,0.082949309,-38.473312,145.0187057,51f637b23c9920624059f566d47c953c43c0f00101f9014468250000000000c00208,Melbourne,Melbourne,1.0,Shire of Mornington Peninsula,,,,,
105,1083.0,Footscray,17343.0,23424.0,32211.0,39266.0,44492.0,2GMEL,27149.0,1.5654154409999999,-37.7981339,144.897345,515587dc0cb71c6240591b2a6b4029e642c0f00101f901a59d240000000000c00205,Footscray,Footscray,1.0,City of Maribyrnong,Footscray,-37.815295,-37.786363,144.87928,144.916504
106,1001.0,Forest Hill,11074.0,11624.0,12205.0,12829.0,13473.0,2GMEL,2399.0,0.216633556,-37.8362738,145.1690911,516e11bd31692562405936c016050beb42c0f00101f901628e240000000000c00205,Forest Hill,Forest Hill,1.0,City of Whitehorse,Forest Hill,-37.854838,-37.8279207,145.156887,145.185176
107,1110.0,Frankston,23510.0,25053.0,26456.0,27949.0,29613.0,2GMEL,6103.0,0.25959166300000003,-38.1444729,145.1268808,51b1cf52680f24624059425486167e1243c0f00101f901f20a250000000000c00205,Frankston,Frankston,1.0,City of Frankston,Frankston,-38.176899,-38.124857,145.109455,145.173389
108,1111.0,Frankston North,19939.0,20203.0,20680.0,21389.0,22268.0,2GMEL,2329.0,0.11680625900000001,-38.1228524,145.1609788,512e2b03bd2625624059181ea0a0b90f43c0f00101f901f00a250000000000c00205,Frankston North,Frankston North,1.0,City of Frankston,Frankston North,-38.140521,-38.112735,145.139332,145.181946
109,1112.0,Frankston South,18995.0,19561.0,20090.0,20702.0,21423.0,2GMEL,2428.0,0.127823111,-38.1765027,145.1295641,518b879c632524624059ee13f6a3971643c0f00101f901f40a250000000000c00205,Frankston South,Frankston South,1.0,City of Frankston,Frankston South,-38.200079,-38.150937,145.098034,145.161268
110,956.0,Gisborne,13312.0,15097.0,16783.0,18489.0,20272.0,2GMEL,6960.0,0.522836538,-37.486723,144.5904237,5111493ec0e412624059029b73f04cbe42c0f00101f901773b250000000000c00207,Gisborne VIC 3437,Gisborne VIC 3437,1.0,Shire of Macedon Ranges,,,,,
111,968.0,Gladstone Park,18353.0,18971.0,19551.0,20160.0,20916.0,2GMEL,2563.0,0.139650193,-37.6898311,144.8944658,517fccbd769f1c624059c121af624cd842c0f00101f901bd9d240000000000c00205,Gladstone Park,Gladstone Park,1.0,City of Hume,Gladstone Park,-37.704592,-37.680489,144.88206,144.907333
112,143.0,Glen Iris,17182.0,17955.0,18639.0,19326.0,20118.0,2GMEL,2936.0,0.170876499,-37.855814,145.0646117,510c4e8e4c1122624059bfba2a508bed42c0f00101f9014f62240000000000c00205,Glen Iris,Glen Iris,1.0,City of Boroondara,Glen Iris,-37.86753,-37.845408,145.039721,145.095537
113,,Glen Waverley,42304.0,44659.0,46929.0,49305.0,51806.0,2GMEL,9502.0,0.22461233,-37.8816255,145.1681838,51f216fec26125624059eae8b81ad9f042c0f00101f901359d240000000000c00205,Glen Waverley,Glen Waverley,1.0,City of Monash,Glen Waverley,-37.904875,-37.859769,145.142933,145.200315
114,963.0,Glenroy,23153.0,25544.0,27739.0,29874.0,32250.0,2GMEL,9097.0,0.392908046,-37.7028199,144.9275403,511bc7fe68ae1d6240592fbda200f6d942c0f00101f901b495240000000000c00205,Glenroy,Glenroy,1.0,City of Merri-bek,Glenroy,-37.716267,-37.69193,144.898012,144.959267
115,964.0,Gowanbrae,3042.0,3278.0,3540.0,3831.0,4153.0,2GMEL,1111.0,0.36522025,-37.7027183,144.8975976,51fb1e9a1eb91c6240597e665aacf2d942c0f00101f901009b240000000000c00205,Gowanbrae,Gowanbrae,1.0,City of Merri-bek,Gowanbrae,-37.710101,-37.693849,144.889344,144.907021
116,433.0,Greensborough,21348.0,22004.0,22624.0,23330.0,24122.0,2GMEL,2774.0,0.129941915,-37.6988474,145.1074004,5179b2f6d26f2362405983f2e3d473d942c0f00101f901d75f240000000000c00205,Greensborough,Greensborough,1.0,City of Banyule,Greensborough,-37.720332,-37.679203,145.067839,145.134602
117,965.0,Hadfield,5911.0,6633.0,7206.0,7788.0,8407.0,2GMEL,2496.0,0.42226357600000003,-37.7101582,144.9502764,5124850daa681e6240593dfec176e6da42c0f00101f9013c8e240000000000c00205,Hadfield,Hadfield,1.0,City of Merri-bek,Hadfield,-37.7192129,-37.701585,144.936495,144.9629776
118,1027.0,Hallam,11335.0,12000.0,12681.0,13526.0,14511.0,2GMEL,3176.0,0.280194089,-38.0074845,145.268858,5193a8177c9a286240590b5d8940f50043c0f00101f9017bfc240000000000c00205,Hallam,Hallam,1.0,City of Casey,Hallam,-38.021644,-37.986961,145.248995,145.289526
119,166.0,Hampton,18611.0,19607.0,20563.0,21501.0,22425.0,2GMEL,3814.0,0.20493256699999998,-37.937671,145.0086789,514af5f81847206240592db4739a05f842c0f00101f90192a8240000000000c00205,Hampton,Hampton,1.0,City of Bayside,Hampton,-37.946992,-37.92871,144.992117,145.025241
120,1038.0,Hampton Park,13390.0,13908.0,14162.0,14435.0,14771.0,2GMEL,1381.0,0.103136669,-38.0367368,145.2590312,519994ccfb4928624059a4479dcab30443c0f00101f9014a02250000000000c00205,Hampton Park,Hampton Park,1.0,City of Casey,Hampton Park,-38.06758,-38.017012,145.246697,145.288567
121,,Lynbrook,13390.0,13908.0,14162.0,14435.0,14771.0,2GMEL,1381.0,0.103136669,-38.0558639,145.2561128,51c9827813322862405975c35b8c260743c0f00101f901e409250000000000c00205,Lynbrook,Lynbrook,1.0,City of Casey,Lynbrook,-38.077663,-38.035661,145.245145,145.26621
122,1118.0,Hastings,22851.0,24496.0,26100.0,27816.0,29788.0,2GMEL,6937.0,0.30357533600000003,-38.3077183,145.1905044,51d0f7ae9c1826624059bb703150632743c0f00101f901d941250000000000c00207,Melbourne VIC 3915,Melbourne VIC 3915,1.0,Shire of Mornington Peninsula,,,,,
123,144.0,Hawthorn,24548.0,26535.0,28479.0,30463.0,32196.0,2GMEL,7648.0,0.31155287600000003,-37.8244246,145.0317207,51662321db03216240594a82cbbe86e942c0f00101f901d461240000000000c00205,Hawthorn,Hawthorn,1.0,City of Boroondara,Hawthorn,-37.84509,-37.812143,145.014379,145.046875
124,145.0,Hawthorn East,16192.0,18065.0,19492.0,20847.0,22233.0,2GMEL,6041.0,0.373085474,-37.8313785,145.0499797,51d81e076f99216240597c0c569c6aea42c0f00101f901ff5f240000000000c00205,Hawthorn East,Hawthorn East,1.0,City of Boroondara,Hawthorn East,-37.848124,-37.815832,145.040283,145.059356
125,434.0,Heidelberg - Rosanna,15532.0,17258.0,18986.0,20639.0,22283.0,2GMEL,6751.0,0.43465104299999996,-37.7396345,145.0696349,512145f8723a22624059253fe257acde42c0f00101f901524a240000000000c00205,Rosanna,Rosanna,1.0,City of Banyule,Rosanna,-37.749968,-37.729721,145.057829,145.08381
126,435.0,Heidelberg West,14806.0,16137.0,17273.0,18236.0,19325.0,2GMEL,4519.0,0.305214102,-37.7382431,145.0433922,51d9fc09786321624059b37ff9bf7ede42c0f00101f901f54f240000000000c00205,Heidelberg West,Heidelberg West,1.0,City of Banyule,Heidelberg West,-37.751137,-37.727324,145.031987,145.058155
127,,Hoppers Crossing,40392.0,41214.0,41823.0,42568.0,43497.0,2GMEL,3105.0,0.076871658,-37.8665704,144.6949625,51492eff213d1662405940d763c7ebee42c0f00101f9017a02250000000000c00205,Hoppers Crossing,Hoppers Crossing,1.0,City of Wyndham,Hoppers Crossing,-37.89162,-37.846375,144.664452,144.736622
128,173.0,Hughesdale,8038.0,8639.0,9225.0,9801.0,10392.0,2GMEL,2354.0,0.29285892,-37.8995028,145.0811583,5191894ad99822624059895462e822f342c0f00101f9014e97240000000000c00205,Hughesdale,Hughesdale,1.0,City of Monash,Hughesdale,-37.909497,-37.887152,145.074207,145.088226
129,447.0,Hurstbridge,3605.0,3615.0,3677.0,3770.0,3869.0,2GMEL,264.0,0.073231623,-37.6375848,145.1943394,5160ea420738266240599e36f4609cd142c0f00101f9018d97240000000000c00205,Hurstbridge,Hurstbridge,1.0,Shire of Nillumbik,Hurstbridge,-37.658254,-37.615708,145.166076,145.227324
130,436.0,Ivanhoe,11998.0,13341.0,14437.0,15454.0,16394.0,2GMEL,4396.0,0.366394399,-37.7690312,145.0430809,51a21232eb602162405944cd469d6fe242c0f00101f9016959240000000000c00205,Ivanhoe,Ivanhoe,1.0,City of Banyule,Ivanhoe,-37.785092,-37.751137,145.027828,145.063662
131,437.0,Ivanhoe East,8119.0,8234.0,8380.0,8613.0,8910.0,2GMEL,791.0,0.097425791,-37.7733903,145.0617815,51ee3f321dfa2162405996c50e74fee242c0f00101f9014c58240000000000c00205,Ivanhoe East,Ivanhoe East,1.0,City of Banyule,Ivanhoe East,-37.783734,-37.765308,145.049027,145.07669
132,952.0,Keilor,8993.0,9353.0,9669.0,9975.0,10321.0,2GMEL,1328.0,0.14767041,-37.7113545,144.8250696,51909d5cf8661a62405964ae0caa0ddb42c0f00101f9017ba9240000000000c00205,Keilor,Keilor,1.0,City of Brimbank,Keilor,-37.733857,-37.684261,144.801585,144.848199
133,1067.0,Keilor Downs,13943.0,13933.0,14035.0,14210.0,14457.0,2GMEL,514.0,0.036864376000000004,-37.7205762,144.8047614,51a9c2fa9ac01962405952a346d73bdc42c0f00101f90184a9240000000000c00205,Keilor Downs,Keilor Downs,1.0,City of Brimbank,Keilor Downs,-37.72968,-37.711229,144.782059,144.824811
134,953.0,Keilor East,27399.0,29174.0,30911.0,32644.0,34525.0,2GMEL,7126.0,0.260082485,-37.739339,144.8591851,51bc36c0717e1b62405924d40ca9a2de42c0f00101f9016fa9240000000000c00205,Keilor East,Keilor East,1.0,City of Moonee Valley,Keilor East,-37.752845,-37.720619,144.828649,144.882366
135,118.0,Kensington,11530.0,12384.0,13215.0,15175.0,16674.0,2GMEL,5144.0,0.44614050299999997,-37.7943554,144.9270487,5194090962aa1d62405954331070ade542c0f00101f9012b97240000000000c00205,Kensington,Kensington,1.0,City of Melbourne,Kensington,-37.802362,-37.787402,144.912948,144.937826
136,146.0,Kew,26504.0,27586.0,28584.0,29726.0,30964.0,2GMEL,4460.0,0.168276487,-37.8033586,145.0333285,51cb30ee061121624059edfa6074d4e642c0f00101f901ee5f240000000000c00205,Kew,Kew,1.0,City of Boroondara,Kew,-37.817373,-37.785572,144.999264,145.06252
137,147.0,Kew East,6855.0,7075.0,7324.0,7609.0,7931.0,2GMEL,1076.0,0.156965718,-37.7904215,145.0527906,512991e975b02162405913471e882ce542c0f00101f901d25f240000000000c00205,Kew East,Kew East,1.0,City of Boroondara,Kew East,-37.801191,-37.779864,145.037185,145.064977
138,1048.0,Keysborough,27471.0,32532.0,36093.0,37937.0,39749.0,2GMEL,12278.0,0.44694405,-38.0053607,145.1674069,51fe13b7655b256240598297cfa8af0043c0f00101f9018ff3240000000000c00205,Keysborough,Keysborough,1.0,City of Greater Dandenong,Keysborough,-38.032846,-37.979907,145.137298,145.194741
139,1009.0,Kilsyth,9470.0,10176.0,10675.0,11127.0,11595.0,2GMEL,2125.0,0.224392819,-37.8037844,145.3134593,511144ccdb072a6240597a843f68e2e642c0f00101f901fec8240000000000c00205,Kilsyth,Kilsyth,1.0,Shire of Yarra Ranges,Kilsyth,-37.846636,-37.791727,145.296463,145.339921
140,1068.0,Kings Park,14447.0,14784.0,15155.0,15576.0,16046.0,2GMEL,1599.0,0.110680418,-37.7337122,144.7719526,51fd61f0d5b3186240598ed60748eadd42c0f00101f9018efb240000000000c00205,Kings Park,Kings Park,1.0,City of Brimbank,Kings Park,-37.741953,-37.725558,144.762394,144.782007
141,441.0,Kingsbury,11965.0,13109.0,14057.0,14826.0,15678.0,2GMEL,3713.0,0.310321772,-37.715569,145.0355601,515c51ef4e23216240590684d6c397db42c0f00101f901d05f240000000000c00205,Kingsbury,Kingsbury,1.0,City of Darebin,Kingsbury,-37.721969,-37.711998,145.021993,145.045128
142,980.0,Knoxfield - Scoresby,15752.0,17527.0,19306.0,21157.0,23138.0,2GMEL,7386.0,0.468892839,-37.9025786,145.2183066,5108701f5efc26624059e48810b287f342c0f00101f9016da9240000000000c00205,Scoresby,Scoresby,1.0,City of Knox,Scoresby,-37.922743,-37.887709,145.196066,145.2398692
143,1021.0,Koo Wee Rup,7666.0,9494.0,11036.0,12424.0,13705.0,2GMEL,6039.0,0.787764153,-38.1990553,145.492854,517d76c075c52f62405938cce1a47a1943c0f00101f901d360250000000000c00207,Melbourne VIC 3981,Melbourne VIC 3981,1.0,Shire of Cardinia,,,,,
144,937.0,Lalor,23874.0,26948.0,29649.0,32407.0,34964.0,2GMEL,11090.0,0.464522074,-37.662922,145.003955,51fb743c66202062405943e6caa0dad442c0f00101f901f386240000000000c00205,Lalor,Lalor,1.0,City of Whittlesea,Lalor,-37.677241,-37.654733,144.972121,145.045351
145,1113.0,Langwarrin,24694.0,25883.0,26887.0,27735.0,28684.0,2GMEL,3990.0,0.16157771099999998,-38.1545829,145.1973931,51989e550b5126624059ab025a5fc91343c0f00101f9014617250000000000c00205,Langwarrin,Langwarrin,1.0,City of Frankston,Langwarrin,-38.184924,-38.123558,145.161268,145.229538
146,1099.0,Laverton,9385.0,12793.0,13840.0,14690.0,15648.0,2GMEL,6263.0,0.667341502,-37.8593822,144.7671404,51172e066a8c18624059dce1653c00ee42c0f00101f90171f9240000000000c00205,Laverton,Laverton,1.0,City of Hobsons Bay,Laverton,-37.869798,-37.844172,144.750444,144.785132
147,1010.0,Lilydale - Coldstream,19448.0,20212.0,23072.0,26357.0,29679.0,2GMEL,10231.0,0.526069519,-37.7291014,145.378424,51b000a60c1c2c624059e13bd63153dd42c0f00101f9010ffd240000000000c00205,Coldstream,Coldstream,1.0,Shire of Yarra Ranges,Coldstream,-37.751094,-37.657519,145.311112,145.49705
148,1039.0,Lynbrook - Lyndhurst,16067.0,18177.0,19748.0,20647.0,21346.0,2GMEL,5279.0,0.328561648,-38.0685384,145.2307493,5166225b4c62276240599542c5ddc50843c0f00101f901170a250000000000c00205,Lyndhurst,Lyndhurst,1.0,City of Greater Dandenong,Lyndhurst,-38.080632,-38.049042,145.194728,145.263465
149,981.0,Lysterfield,6917.0,7082.0,7257.0,7468.0,7715.0,2GMEL,798.0,0.115367934,-37.9348771,145.3017588,51f7281202a829624059c123850daaf742c0f00101f901b6f3240000000000c00205,Lysterfield,Lysterfield,1.0,Shire of Yarra Ranges,Lysterfield,-37.967844,-37.900346,145.265151,145.336514
150,957.0,Macedon,3525.0,3560.0,3647.0,3790.0,3963.0,2GMEL,438.0,0.124255319,-37.4214267,144.5636447,510a229c600912624059a214634ff1b542c0f00101f9015959250000000000c00207,Macedon VIC 3440,Macedon VIC 3440,1.0,Shire of Macedon Ranges,,,,,
151,188.0,Malvern,21148.0,22603.0,23619.0,24695.0,25858.0,2GMEL,4710.0,0.222716096,-37.8576088,145.0350666,51d285fd431f2162405983610a20c6ed42c0f00101f9011a78240000000000c00205,Malvern,Malvern,1.0,City of Stonnington,Malvern,-37.873108,-37.84377,145.026852,145.044466
152,189.0,Malvern East,22575.0,24421.0,26025.0,27617.0,29275.0,2GMEL,6700.0,0.296788483,-37.876835,145.0658739,511fc594a31b226240597c7e18213cf042c0f00101f901388e240000000000c00205,Malvern East,Malvern East,1.0,City of Stonnington,Malvern East,-37.892976,-37.863473,145.037065,145.092201
153,1084.0,Maribyrnong,12950.0,14713.0,18384.0,22312.0,25011.0,2GMEL,12061.0,0.931351351,-37.7695144,144.8902049,51a587fc8e7c1c62405989e6a6727fe242c0f00101f901c39d240000000000c00205,Maribyrnong,Maribyrnong,1.0,City of Maribyrnong,Maribyrnong,-37.789011,-37.755825,144.870577,144.904112
154,970.0,Meadow Heights,15779.0,15870.0,16030.0,16261.0,16660.0,2GMEL,881.0,0.055833703,-37.6511668,144.9185521,5182a55fc7641d624059d81e076f59d342c0f00101f901e79a240000000000c00205,Meadow Heights,Meadow Heights,1.0,City of Hume,Meadow Heights,-37.66379,-37.638249,144.905941,144.931582
155,1091.0,Melton West,18157.0,22197.0,24450.0,26552.0,29167.0,2GMEL,11010.0,0.606377706,-37.6798651,144.5528895,51a8195245b1116240598c18d1d105d742c0f00101f901353b250000000000c00205,Melton West,Melton West,1.0,City of Melton,Melton West,-37.690213,-37.666849,144.512068,144.570269
156,,Melton South,43803.0,55584.0,68449.0,81710.0,95148.0,2GMEL,51345.0,1.172179988,-37.7060279,144.5717723,5147286cf54b1262405923484a1f5fda42c0f00101f9010838250000000000c00205,Melton South,Melton South,1.0,City of Melton,Melton South,-37.720649,-37.690213,144.549541,144.584934
157,185.0,Mentone,13695.0,14731.0,15771.0,16784.0,17822.0,2GMEL,4127.0,0.301350858,-37.9813669,145.0689511,51bef0efd834226240593e703a6e9dfd42c0f00101f901e8c6240000000000c00205,Mentone,Mentone,1.0,City of Kingston,Mentone,-37.9949262,-37.973487,145.051696,145.095327
158,947.0,Mernda,17171.0,25917.0,28976.0,30399.0,31310.0,2GMEL,14139.0,0.8234232140000001,-37.5921097,145.0819562,518bd69b629f226240597b922a40cacb42c0f00101f9017c90240000000000c00205,Mernda,Mernda,1.0,City of Whittlesea,Mernda,-37.617124,-37.567356,145.050591,145.118531
159,978.0,Mickleham,3580.0,18538.0,33525.0,47112.0,58334.0,2GMEL,54754.0,15.29441341,-37.5344793,144.9120372,518857a3682f1d624059caf154d169c442c0f00101f90184fb240000000000c00205,Mickleham,Mickleham,1.0,City of Hume,Mickleham,-37.5912096,-37.502067,144.84833,144.950012
160,,Mill Park,31238.0,31207.0,31455.0,31873.0,32411.0,2GMEL,1173.0,0.037550419,-37.6641334,145.0642681,51a275f97b0e226240593497c05202d542c0f00101f901786b240000000000c00205,Mill Park,Mill Park,1.0,City of Whittlesea,Mill Park,-37.679171,-37.649176,145.035538,145.094586
161,1002.0,Mitcham,16859.0,17634.0,18433.0,19298.0,20238.0,2GMEL,3379.0,0.20042707199999998,-37.8175796,145.1976295,5132e719fb52266240593af0c572a6e842c0f00101f9015190240000000000c00205,Mitcham,Mitcham,1.0,City of Whitehorse,Mitcham,-37.831271,-37.802628,145.18447,145.213526
162,1011.0,Monbulk - Silvan,5827.0,5902.0,5981.0,6072.0,6171.0,2GMEL,344.0,0.059035524000000006,-37.8232257,145.4196179,511eaa84826d2d624059055db1755fe942c0f00101f901bd0f250000000000c00205,Silvan,Silvan,1.0,Shire of Yarra Ranges,Silvan,-37.863307,-37.800703,145.388093,145.485885
163,438.0,Montmorency - Briar Hill,16792.0,17219.0,17459.0,17803.0,18224.0,2GMEL,1432.0,0.085278704,-37.7063703,145.1216479,511104238ae423624059d0ae8c576ada42c0f00101f901da5f240000000000c00205,Briar Hill,Briar Hill,1.0,City of Banyule,Briar Hill,-37.712261,-37.699888,145.110742,145.13256
164,1012.0,Montrose,7078.0,7177.0,7261.0,7373.0,7546.0,2GMEL,468.0,0.066120373,-37.8106247,145.3421513,51167948e7f22a62405937ead78cc2e742c0f00101f901abf3240000000000c00205,Montrose,Montrose,1.0,Shire of Yarra Ranges,Montrose,-37.847435,-37.786969,145.322912,145.37469
165,113.0,Moonee Ponds,15158.0,17712.0,20977.0,23272.0,25599.0,2GMEL,10441.0,0.688811189,-37.765575,144.9212864,51fdc79d2d7b1d6240594ed1915cfee142c0f00101f9017997240000000000c00205,Moonee Ponds,Moonee Ponds,1.0,City of Moonee Valley,Moonee Ponds,-37.773817,-37.756937,144.901021,144.938477
166,186.0,Moorabbin,4627.0,5054.0,5532.0,6004.0,6510.0,2GMEL,1883.0,0.40695915299999996,-37.9414646,145.0578383,5199deb4cfd921624059beab79e981f842c0f00101f9015ca3240000000000c00205,Moorabbin,Moorabbin,1.0,City of Kingston,Moorabbin,-37.94984,-37.933028,145.034401,145.079533
167,,Heatherton,4627.0,5054.0,5532.0,6004.0,6510.0,2GMEL,1883.0,0.40695915299999996,-37.9560844,145.0932067,5194089e8cfb226240599f1b3ff960fa42c0f00101f901b4a8240000000000c00205,Heatherton,Heatherton,1.0,City of Kingston,Heatherton,-37.972272,-37.938752,145.075447,145.112058
168,1013.0,Mooroolbark,23027.0,24348.0,25460.0,26615.0,27844.0,2GMEL,4817.0,0.209189213,-37.7813447,145.3256732,51e1e533ea6b2a62405993b3661a03e442c0f00101f90122c8240000000000c00205,Mooroolbark,Mooroolbark,1.0,Shire of Yarra Ranges,Mooroolbark,-37.802756,-37.758438,145.298161,145.353502
169,187.0,Mordialloc,20969.0,22175.0,23093.0,24146.0,25335.0,2GMEL,4366.0,0.208212123,-37.9993584,145.0960708,51380312031323624059cf7ddef9eaff42c0f00101f901e0f2240000000000c00205,Mordialloc,Mordialloc,1.0,City of Kingston,Mordialloc,-38.011918,-37.984784,145.081026,145.109249
170,,Parkdale,10485.0,11088.0,11547.0,12073.0,12668.0,2GMEL,2183.0,0.20820219399999998,-37.9918673,145.081286,51edf318e5992262405965bcf781f5fe42c0f00101f9013fd9240000000000c00205,Parkdale,Parkdale,1.0,City of Kingston,Parkdale,-38.005217,-37.982185,145.0687053,145.094263
171,1119.0,Mornington,25030.0,26542.0,28039.0,29653.0,31386.0,2GMEL,6356.0,0.253935278,-38.2197962,145.0412592,511855d0fe51216240597d642948221c43c0f00101f901682b250000000000c00205,Mornington,Mornington,1.0,Shire of Mornington Peninsula,Mornington,-38.254658,-38.200927,145.025265,145.099241
172,1014.0,Mount Dandenong,5055.0,5077.0,5101.0,5130.0,5167.0,2GMEL,112.0,0.022156281,-37.8321508,145.3551849,510f31b9ac5d2b6240598dabdbea83ea42c0f00101f90169f9240000000000c00205,Mount Dandenong,Mount Dandenong,1.0,Shire of Yarra Ranges,Mount Dandenong,-37.853537,-37.818975,145.332124,145.370001
173,,Olinda,5055.0,5077.0,5101.0,5130.0,5167.0,2GMEL,112.0,0.022156281,-37.843742,145.3855733,51bf36d19d562c6240597d21e4bcffeb42c0f00101f90115fc240000000000c00205,Olinda,Olinda,1.0,Shire of Yarra Ranges,Olinda,-37.883515,-37.82525,145.348315,145.405267
174,1120.0,Mount Eliza,18696.0,19338.0,19992.0,20702.0,21470.0,2GMEL,2774.0,0.14837398400000001,-38.1837759,145.0892789,5122776c5fdb226240598025fcf7851743c0f00101f901df1e250000000000c00205,Mount Eliza,Mount Eliza,1.0,Shire of Mornington Peninsula,Mount Eliza,-38.224989,-38.162592,145.061002,145.12875
175,1015.0,Mount Evelyn,10081.0,10287.0,10451.0,10582.0,10730.0,2GMEL,649.0,0.064378534,-37.7873186,145.3883037,514e8de1fb6c2c62405929441bdbc6e442c0f00101f90112fc240000000000c00205,Mount Evelyn,Mount Evelyn,1.0,Shire of Yarra Ranges,Mount Evelyn,-37.808785,-37.764101,145.359381,145.418644
176,1121.0,Mount Martha,19365.0,20527.0,21847.0,23396.0,25179.0,2GMEL,5814.0,0.300232378,-38.2754676,145.0307737,5176622019fc20624059c68db685422343c0f00101f901e83a250000000000c00205,Mount Martha,Mount Martha,1.0,Shire of Mornington Peninsula,Mount Martha,-38.304776,-38.242807,144.982787,145.078918
177,,Mount Waverley,35344.0,37374.0,39355.0,41445.0,43642.0,2GMEL,8298.0,0.23477818,-37.8783923,145.1284919,51a1890b9b1c2462405974c7ac286ff042c0f00101f9011795240000000000c00205,Mount Waverley,Mount Waverley,1.0,City of Monash,Mount Waverley,-37.901255,-37.855514,145.106148,145.150753
178,1060.0,Mulgrave,20462.0,21570.0,22654.0,23780.0,24992.0,2GMEL,4530.0,0.22138598399999998,-37.9261741,145.1723107,5107a8ba9183256240597cf376df8cf642c0f00101f90109b7240000000000c00205,Mulgrave,Mulgrave,1.0,City of Monash,Mulgrave,-37.940148,-37.902615,145.147538,145.220125
179,174.0,Murrumbeena,9809.0,10290.0,10725.0,11128.0,11572.0,2GMEL,1763.0,0.179732898,-37.8968653,145.0703808,5186483c8f402262405968356e7bccf242c0f00101f9011f95240000000000c00205,Murrumbeena,Murrumbeena,1.0,City of Glen Eira,Murrumbeena,-37.908145,-37.884599,145.060351,145.078183
180,1031.0,Narre Warren,13967.0,14321.0,14628.0,15007.0,15429.0,2GMEL,1462.0,0.104675306,-38.017956,145.3058481,516661f481c9296240592c62d8614c0243c0f00101f901af00250000000000c00205,Narre Warren,Narre Warren,1.0,City of Casey,Narre Warren,-38.045817,-37.99529,145.284802,145.331448
181,1028.0,Narre Warren North,8183.0,8871.0,9318.0,9768.0,10225.0,2GMEL,2042.0,0.24954173300000002,-37.9813391,145.3129016,51b75b374a032a6240599e6406859cfd42c0f00101f901ad00250000000000c00205,Narre Warren North,Narre Warren North,1.0,City of Casey,Narre Warren North,-38.005776,-37.961954,145.275047,145.361053
182,,Narre Warren South,45770.0,47255.0,48144.0,49316.0,50737.0,2GMEL,4967.0,0.108520865,-38.05439,145.3028513,51a2a135f5b0296240595e9d6340f60643c0f00101f901b300250000000000c00205,Narre Warren South,Narre Warren South,1.0,City of Casey,Narre Warren South,-38.074511,-38.024708,145.279769,145.335797
183,1079.0,Newport,18523.0,19888.0,21010.0,22176.0,23377.0,2GMEL,4854.0,0.262052583,-37.8435966,144.8804797,515789c3e32c1c624059260230f9faeb42c0f00101f9019ea8240000000000c00205,Newport,Newport,1.0,City of Hobsons Bay,Newport,-37.857907,-37.83308,144.860986,144.90555
184,,Noble Park North,40379.0,43020.0,45901.0,49288.0,52877.0,2GMEL,12498.0,0.309517323,-37.9512702,145.1908377,51010baa571b266240596754cf38c3f942c0f00101f9014eb7240000000000c00205,Noble Park North,Noble Park North,1.0,City of Greater Dandenong,Noble Park North,-37.967764,-37.936497,145.175881,145.201903
185,120.0,North Melbourne,22106.0,29306.0,33979.0,40364.0,45392.0,2GMEL,23286.0,1.053379173,-37.7985747,144.9451741,51d710c1dd3e1e624059def41db237e642c0f00101f9015662240000000000c00205,North Melbourne,North Melbourne,1.0,City of Melbourne,North Melbourne,-37.8061571,-37.787463,144.935279,144.9585099
186,108.0,Northcote,26424.0,28701.0,30539.0,32396.0,34327.0,2GMEL,7903.0,0.29908416600000004,-37.7728157,145.0009469,510b11cbc10720624059edaaf69febe242c0f00101f901af59240000000000c00205,Northcote,Northcote,1.0,City of Darebin,Northcote,-37.785645,-37.758947,144.980812,145.017796
187,1003.0,Nunawading,12363.0,13111.0,14208.0,15227.0,16248.0,2GMEL,3885.0,0.314244116,-37.8172638,145.1765591,51f509455fa625624059339aa6199ce842c0f00101f9011978240000000000c00205,Nunawading,Nunawading,1.0,City of Whitehorse,Nunawading,-37.8326027,-37.801221,145.163924,145.189118
188,1061.0,Oakleigh - Huntingdale,22617.0,24686.0,27155.0,29364.0,31423.0,2GMEL,8806.0,0.389353141,-37.9076585,145.1084736,51578fa09d7823624059dcb75a272ef442c0f00101f901b099240000000000c00205,Huntingdale,Huntingdale,1.0,City of Monash,Huntingdale,-37.912679,-37.900829,145.103394,145.113814
189,175.0,Ormond,7029.0,7447.0,7806.0,8162.0,8531.0,2GMEL,1502.0,0.213686157,-37.9039946,145.0432907,5112972da362216240595b615518b6f342c0f00101f901ab99240000000000c00205,Ormond,Ormond,1.0,City of Glen Eira,Ormond,-37.909629,-37.896808,145.025822,145.054687
190,,Glen Huntly,7029.0,7447.0,7806.0,8162.0,8531.0,2GMEL,1502.0,0.213686157,-37.8923791,145.0413689,514a12dfe452216240592411757a39f242c0f00101f901b295240000000000c00205,Glen Huntly,Glen Huntly,1.0,City of Glen Eira,Glen Huntly,-37.898201,-37.886282,145.036139,145.046128
191,,Pakenham,48950.0,59003.0,66082.0,71840.0,75469.0,2GMEL,26519.0,0.541756895,-38.079153,145.4833359,51726fd97c772f624059ad307daf210a43c0f00101f901f237250000000000c00205,Pakenham,Pakenham,1.0,Shire of Cardinia,Pakenham,-38.12686,-38.015257,145.430803,145.544793
192,121.0,Parkville,7898.0,9020.0,9640.0,10615.0,11559.0,2GMEL,3661.0,0.46353507200000005,-37.7871148,144.9515533,51d4fce71f731e6240594a19822dc0e442c0f00101f901825d240000000000c00205,Parkville,Parkville,1.0,City of Melbourne,Parkville,-37.800426,-37.773817,144.936339,144.965205
193,962.0,Pascoe Vale,24829.0,27611.0,29998.0,32327.0,34604.0,2GMEL,9775.0,0.393692859,-37.7250777,144.9379604,512e5e87c5031e6240598a479858cfdc42c0f00101f9016890240000000000c00205,Pascoe Vale,Pascoe Vale,1.0,City of Merri-bek,Pascoe Vale,-37.735678,-37.71372,144.919472,144.952191
194,106.0,Pascoe Vale South,10465.0,11267.0,11923.0,12572.0,13241.0,2GMEL,2776.0,0.26526517,-37.7434265,144.9384767,51dbd14900081e624059683d7c9928df42c0f00101f901c68f240000000000c00205,Pascoe Vale South,Pascoe Vale South,1.0,City of Merri-bek,Pascoe Vale South,-37.753336,-37.732974,144.925781,144.949592
195,1040.0,Pearcedale,8036.0,8298.0,8594.0,8896.0,9206.0,2GMEL,1170.0,0.145594823,-38.2015815,145.242198,5103250516c02762405944fd2e6ccd1943c0f00101f901ef37250000000000c00205,Pearcedale,Pearcedale,1.0,City of Casey,Pearcedale,-38.225207,-38.168986,145.196645,145.286882
196,448.0,Plenty,4897.0,5026.0,5145.0,5310.0,5508.0,2GMEL,611.0,0.124770268,-37.6674499,145.1123773,51028a47989823624059f71b92ff6ed542c0f00101f901976b240000000000c00205,Plenty,Plenty,1.0,Shire of Nillumbik,Plenty,-37.682921,-37.647969,145.083415,145.138315
197,,Yarrambat,4897.0,5026.0,5145.0,5310.0,5508.0,2GMEL,611.0,0.124770268,-37.6375473,145.1349293,51b65840575124624059999361269bd142c0f00101f901e786240000000000c00205,Yarrambat,Yarrambat,1.0,Shire of Nillumbik,Yarrambat,-37.658385,-37.617464,145.101553,145.170548
198,1105.0,Point Cook - North,24288.0,25725.0,26250.0,26627.0,27028.0,2GMEL,2740.0,0.11281291199999999,-37.90903765,144.79678484738176,517faeef427f1962405996ca80585bf442c0f00102f9019d492a3c00000000c00201920310506f696e7420436f6f6b204e6f727468,Point Cook North,Point Cook North,1.0,City of Wyndham,Point Cook,-37.9093946,-37.908652,144.7967389,144.7973468
199,,Point Cook,39435.0,46119.0,49348.0,53320.0,57331.0,2GMEL,17896.0,0.45381006700000004,-37.9064862,144.7533059,51488cf9141b186240593ea363bd07f442c0f00101f9010302250000000000c00205,Point Cook,Point Cook,1.0,City of Wyndham,Point Cook,-37.941393,-37.869457,144.70431,144.804121
200,,Port Melbourne,35493.0,37441.0,42931.0,51781.0,64014.0,2GMEL,28521.0,0.803566901,-37.8333613,144.9219203,519840005f801d62405943a04495abea42c0f00101f901ab9d240000000000c00205,Port Melbourne,Port Melbourne,1.0,City of Port Phillip,Port Melbourne,-37.849482,-37.818967,144.896981,144.9497184
201,131.0,Prahran,21275.0,22653.0,24164.0,25908.0,27888.0,2GMEL,6613.0,0.31083431300000003,-37.8519135,145.0005993,51d1bcd2e80420624059adc266800bed42c0f00101f901768e240000000000c00205,Prahran,Prahran,1.0,City of Stonnington,Prahran,-37.860173,-37.845688,144.984201,145.012314
202,,Preston,34059.0,38767.0,44178.0,49456.0,55101.0,2GMEL,21042.0,0.61781027,-37.7418658,145.0078205,51a1f7c6104020624059ac826275f5de42c0f00101f9016f60240000000000c00205,Preston,Preston,1.0,City of Darebin,Preston,-37.755732,-37.727557,144.979763,145.0384
203,449.0,North Warrandyte,3504.0,3514.0,3539.0,3570.0,3632.0,2GMEL,128.0,0.03652968,-37.7236286,145.2087814,516ba05456ae26624059a2b9a9dc9fdc42c0f00101f901a88e240000000000c00205,North Warrandyte,North Warrandyte,1.0,Shire of Nillumbik,North Warrandyte,-37.741794,-37.71074,145.188829,145.243207
204,,Research,3504.0,3514.0,3539.0,3570.0,3632.0,2GMEL,128.0,0.03652968,-37.7066557,145.189067,5117b83cd60c266240591884a8b173da42c0f00101f901e186240000000000c00205,Research,Research,1.0,Shire of Nillumbik,Research,-37.72545,-37.686077,145.164085,145.212387
205,,Reservoir,53666.0,57620.0,61046.0,64959.0,69321.0,2GMEL,15655.0,0.291711698,-37.7123767,145.0074935,51d82d02633d206240595977e2282fdb42c0f00101f9019b6b240000000000c00205,Reservoir,Reservoir,1.0,City of Darebin,Reservoir,-37.733672,-37.691005,144.970342,145.040806
206,138.0,Richmond,32686.0,37786.0,42185.0,45884.0,49800.0,2GMEL,17114.0,0.523588081,-37.8203955,145.0025153,51ab67f79a14206240598d2441b802e942c0f00101f9013262240000000000c00205,Richmond,Richmond,1.0,City of Yarra,Richmond,-37.834522,-37.8096258,144.9888299,145.016871
207,958.0,Riddells Creek,4174.0,4505.0,4886.0,5324.0,5819.0,2GMEL,1645.0,0.39410637299999995,-37.4587733,144.6776503,51fd93ae4faf1562405995e35f15b9ba42c0f00103f901db13f91f00000000c0020792030e52696464656c6c7320437265656b,Riddells Creek,Riddells Creek,1.0,Shire of Macedon Ranges,,,,,
208,995.0,Ringwood,17931.0,20543.0,22765.0,24921.0,27199.0,2GMEL,9268.0,0.516870225,-37.8091884,145.2300999,51032a77fa5c27624059ba26497c93e742c0f00101f901159b240000000000c00205,Ringwood,Ringwood,1.0,City of Maroondah,Ringwood,-37.839486,-37.780494,145.213346,145.264391
209,996.0,Ringwood East,21031.0,22087.0,23128.0,24254.0,25467.0,2GMEL,4436.0,0.21092672699999998,-37.8099075,145.2516141,51cd5603390d286240597fa4880cabe742c0f00101f90185a5240000000000c00205,Ringwood East,Ringwood East,1.0,City of Maroondah,Ringwood East,-37.828006,-37.796561,145.238159,145.266883
210,997.0,Ringwood North,9991.0,10173.0,10411.0,10691.0,11013.0,2GMEL,1022.0,0.102292063,-37.7941413,145.2360475,51af997cb38d2762405993f30f6ca6e542c0f00101f9019597240000000000c00205,Ringwood North,Ringwood North,1.0,City of Maroondah,Ringwood North,-37.810705,-37.773507,145.213818,145.249201
211,1092.0,Rockbank,3148.0,13995.0,28235.0,45791.0,65254.0,2GMEL,62106.0,19.72871665,-37.7312767,144.6607316,51e1ad98b62415624059d56993799add42c0f00101f901a30f250000000000c00205,Rockbank,Rockbank,1.0,City of Melton,Rockbank,-37.745473,-37.71392,144.631851,144.671041
212,959.0,Romsey,9663.0,10468.0,11375.0,12199.0,13065.0,2GMEL,3402.0,0.352064576,-37.3518801,144.7374475,518be07f2b99176240597ece38680aad42c0f00101f9019932250000000000c00207,Romsey VIC 3434,Romsey VIC 3434,1.0,Shire of Macedon Ranges,,,,,
213,1123.0,Rosebud,21613.0,22990.0,24450.0,25995.0,27629.0,2GMEL,6016.0,0.278350992,-38.3710325,144.9095115,51c07adcb71a1d62405966a032fe7d2f43c0f00101f9017e67250000000000c00205,Rosebud,Rosebud,1.0,Shire of Mornington Peninsula,Rosebud,-38.392773,-38.349437,144.874832,144.946148
214,,Rowville,35216.0,35290.0,35763.0,36497.0,37537.0,2GMEL,2321.0,0.065907542,-37.9239267,145.2447672,5146e40522d5276240595b33e83a43f642c0f00101f90127b7240000000000c00205,Rowville,Rowville,1.0,City of Knox,Rowville,-37.952076,-37.899697,145.204823,145.281541
215,972.0,Roxburgh Park,11521.0,13017.0,13678.0,13963.0,14264.0,2GMEL,2743.0,0.23808697199999998,-37.6258153,144.9255725,517632384a9e1d624059106b3bb71ad042c0f00101f90112a0240000000000c00205,Roxburgh Park,Roxburgh Park,1.0,City of Hume,Roxburgh Park,-37.641399,-37.610085,144.910389,144.940497
216,,Somerton,11521.0,13017.0,13678.0,13963.0,14264.0,2GMEL,2743.0,0.23808697199999998,-37.634688,144.9507961,514255f1eb6c1e624059f294d5743dd142c0f00101f9012097240000000000c00205,Somerton,Somerton,1.0,City of Hume,Somerton,-37.646327,-37.620926,144.934877,144.973216
217,1115.0,Sandhurst,13664.0,14253.0,14651.0,15024.0,15395.0,2GMEL,1731.0,0.126683255,-38.0819428,145.21039,51f92ccf83bb266240594312071a7d0a43c0f00101f9011603250000000000c00205,Sandhurst,Sandhurst,1.0,City of Frankston,Sandhurst,-38.090196,-38.073188,145.192563,145.22147
218,167.0,Sandringham,17517.0,18717.0,19698.0,20598.0,21521.0,2GMEL,4004.0,0.228577953,-37.9533347,145.0139308,51074d011f72206240592c5217df06fa42c0f00101f901eaac240000000000c00205,Sandringham,Sandringham,1.0,City of Bayside,Sandringham,-37.963186,-37.941799,144.992836,145.031786
219,1080.0,Seabrook,5408.0,5609.0,5763.0,5927.0,6099.0,2GMEL,691.0,0.127773669,-37.8806797,144.7578334,51219ad42b401862405924e0c61cbaf042c0f00101f9011501250000000000c00205,Seabrook,Seabrook,1.0,City of Hobsons Bay,Seabrook,-37.888649,-37.872967,144.751432,144.766673
220,1114.0,Seaford,17151.0,17924.0,18856.0,20063.0,21408.0,2GMEL,4257.0,0.24820710199999999,-38.1048309,145.1384475,51d19673296e246240591d8e53196b0d43c0f00101f9010b0a250000000000c00205,Seaford,Seaford,1.0,City of Frankston,Seaford,-38.130777,-38.081703,145.122211,145.162044
221,1085.0,Seddon,4856.0,5072.0,5241.0,5491.0,5813.0,2GMEL,957.0,0.197075783,-37.8067725,144.8915967,511777cdf5871c624059f5673f5244e742c0f00101f90151a0240000000000c00205,Seddon,Seddon,1.0,City of Maribyrnong,Seddon,-37.810753,-37.802172,144.884162,144.90023
222,,Kingsville,4856.0,5072.0,5241.0,5491.0,5813.0,2GMEL,957.0,0.197075783,-37.8088622,144.8794356,51059e2056241c6240593dfcebcb88e742c0f00101f901a4a8240000000000c00205,Kingsville,Kingsville,1.0,City of Maribyrnong,Kingsville,-37.812824,-37.802589,144.86924,144.885428
223,1124.0,Somerville,18878.0,19793.0,20719.0,21626.0,22616.0,2GMEL,3738.0,0.198008264,-38.2254039,145.1736692,5152cab5b28e256240590872f508da1c43c0f00101f9016f39250000000000c00205,Somerville,Somerville,1.0,Shire of Mornington Peninsula,Somerville,-38.256677,-38.203359,145.148333,145.261807
224,127.0,South Melbourne,12492.0,17820.0,23032.0,26661.0,29929.0,2GMEL,17437.0,1.395853346,-37.8334603,144.9570188,5107f5e3e59f1e624059d681bdd3aeea42c0f00101f9017a90240000000000c00205,South Melbourne,South Melbourne,1.0,City of Port Phillip,South Melbourne,-37.842169,-37.825947,144.940342,144.971768
225,,South Morang,25233.0,26674.0,29444.0,32256.0,34675.0,2GMEL,9442.0,0.374192526,-37.6316767,145.0836353,5151c9ef23ad22624059961238c8dad042c0f00101f9012887240000000000c00205,South Morang,South Morang,1.0,City of Whittlesea,South Morang,-37.66481,-37.610469,145.044096,145.123397
226,1174.0,South Yarra,38409.0,44311.0,49813.0,55635.0,61090.0,2GMEL,22681.0,0.59051264,-37.8377695,144.9918537,51557df843bd1f6240590b0bee073ceb42c0f00101f9013e62240000000000c00205,South Yarra,South Yarra,1.0,City of Stonnington,South Yarra,-37.848102,-37.827669,144.975809,145.006435
227,122.0,Southbank,20288.0,31840.0,41516.0,44421.0,47186.0,2GMEL,26898.0,1.32580836,-37.8253618,144.9640203,51c3a51941d91e624059112f9974a5e942c0f00101f901ca8e240000000000c00205,Southbank,Southbank,1.0,City of Melbourne,Southbank,-37.831482,-37.819245,144.946909,144.971423
228,1050.0,Springvale,22761.0,24954.0,27499.0,30558.0,33777.0,2GMEL,11016.0,0.483985765,-37.9456253,145.1580111,51f65c4b6d0e2562405996e2f43f0af942c0f00101f901bcac240000000000c00205,Springvale,Springvale,1.0,City of Greater Dandenong,Springvale,-37.963679,-37.924606,145.136589,145.187231
229,1051.0,Springvale South,13227.0,13669.0,14168.0,14790.0,15483.0,2GMEL,2256.0,0.170560218,-37.9708611,145.1478692,51be423058bb24624059b3ba302d45fc42c0f00101f901dcac240000000000c00205,Springvale South,Springvale South,1.0,City of Greater Dandenong,Springvale South,-37.983643,-37.959984,145.129658,145.16199
230,,St Albans,39089.0,41089.0,43107.0,45340.0,47816.0,2GMEL,8727.0,0.223259741,-37.7450983,144.804976,511442075dc21962405911678f615fdf42c0f00101f901e9f2240000000000c00205,St Albans,St Albans,1.0,City of Brimbank,St Albans,-37.76837,-37.727568,144.778718,144.832691
231,128.0,St Kilda,28166.0,31432.0,33210.0,34642.0,36226.0,2GMEL,8060.0,0.286160619,-37.8638261,144.981637,516571ff91691f624059327788da91ee42c0f00101f9012295240000000000c00205,St Kilda,St Kilda,1.0,City of Port Phillip,St Kilda,-37.876291,-37.852189,144.970653,144.993262
232,129.0,St Kilda East,17613.0,18534.0,18967.0,19431.0,19976.0,2GMEL,2363.0,0.134162267,-37.8668218,145.0021657,518955cdbd1120624059dc3a4904f4ee42c0f00101f9016f90240000000000c00205,St Kilda East,St Kilda East,1.0,City of Glen Eira,St Kilda East,-37.878051,-37.857906,144.991215,145.010521
233,955.0,Strathmore,9968.0,10498.0,11058.0,11634.0,12253.0,2GMEL,2285.0,0.22923354699999998,-37.7333202,144.9182433,51ade8c53f621d624059833fb26fdddd42c0f00101f9016f97240000000000c00205,Strathmore,Strathmore,1.0,City of Moonee Valley,Strathmore,-37.74409,-37.715792,144.901732,144.934665
234,1175.0,Sunbury,40924.0,46226.0,52900.0,60940.0,70176.0,2GMEL,29252.0,0.714788388,-37.5796938,144.7295281,516b60504b5817624059d4580c6833ca42c0f00101f901cf0f250000000000c00207,Melbourne VIC 3429,Melbourne VIC 3429,1.0,City of Hume,,,,,
235,1071.0,Sunshine,10241.0,11343.0,13686.0,16091.0,18418.0,2GMEL,8177.0,0.798457182,-37.7893319,144.8342699,513111ca56b21a6240594318e4d308e542c0f00101f9013cb7240000000000c00205,Sunshine,Sunshine,1.0,City of Brimbank,Sunshine,-37.802922,-37.776505,144.815166,144.847246
236,1072.0,Sunshine North,12123.0,13167.0,14412.0,15776.0,17261.0,2GMEL,5138.0,0.423822486,-37.7639467,144.8361969,5188500020c21a6240598d316601c9e142c0f00101f90138b7240000000000c00205,Sunshine North,Sunshine North,1.0,City of Brimbank,Sunshine North,-37.779068,-37.746152,144.816111,144.854267
237,1073.0,Sunshine West,19533.0,20520.0,21592.0,22795.0,24132.0,2GMEL,4599.0,0.23544770399999998,-37.7983442,144.8110919,519e110077f419624059c4f98a2430e642c0f00101f9013eb7240000000000c00205,Sunshine West,Sunshine West,1.0,City of Brimbank,Sunshine West,-37.81689,-37.781613,144.787365,144.834782
238,161.0,Mont Albert,10456.0,10760.0,11120.0,11548.0,12018.0,2GMEL,1562.0,0.14938791099999998,-37.8175479,145.1075721,51c96e0b3b7123624059edb4da68a5e842c0f00101f901e85f240000000000c00205,Mont Albert,Mont Albert,1.0,City of Whitehorse,Mont Albert,-37.824933,-37.810521,145.100071,145.115804
239,148.0,Canterbury,17126.0,17850.0,18434.0,19023.0,19667.0,2GMEL,2541.0,0.148370898,-37.8243448,145.0757933,51301812e66c226240595750622184e942c0f00101f901f65f240000000000c00205,Canterbury,Canterbury,1.0,City of Boroondara,Canterbury,-37.83443,-37.814071,145.058687,145.087636
240,1074.0,Sydenham,12585.0,12955.0,13283.0,13608.0,14028.0,2GMEL,1443.0,0.11466031,-37.6997223,144.7653295,5140a54a947d186240591564158090d942c0f00101f90104fc240000000000c00205,Sydenham,Sydenham,1.0,City of Brimbank,Sydenham,-37.711298,-37.680953,144.755442,144.782059
241,1100.0,Tarneit,36404.0,54969.0,72885.0,90142.0,108005.0,2GMEL,71601.0,1.966844303,-37.8354458,144.6646643,5133ea10ee4415624059504a52e3efea42c0f00101f9017b02250000000000c00205,Tarneit,Tarneit,1.0,City of Wyndham,Tarneit,-37.871684,-37.800946,144.614677,144.713969
242,1093.0,Taylors Hill,20218.0,21229.0,21519.0,21899.0,22405.0,2GMEL,2187.0,0.108170937,-37.7152241,144.7533127,512b453c231b18624059d0679b768cdb42c0f00101f9017afc240000000000c00205,Taylors Hill,Taylors Hill,1.0,City of Melton,Taylors Hill,-37.725339,-37.704435,144.738499,144.768149
243,1075.0,Taylors Lakes,18455.0,18401.0,18413.0,18532.0,18729.0,2GMEL,274.0,0.014846925,-37.698633,144.7863077,51fa02c46e291962405904745fce6cd942c0f00101f9019bf3240000000000c00205,Taylors Lakes,Taylors Lakes,1.0,City of Brimbank,Taylors Lakes,-37.7143331,-37.6790152,144.765039,144.812287
244,151.0,Templestowe,17682.0,17881.0,18068.0,18311.0,18607.0,2GMEL,925.0,0.052313087,-37.7540588,145.1486152,5108f6a974c12462405969a1aeff84e042c0f00101f901726b240000000000c00205,Templestowe,Templestowe,1.0,City of Manningham,Templestowe,-37.77858,-37.733954,145.117526,145.177714
245,152.0,Templestowe Lower,14305.0,14843.0,15241.0,15638.0,16159.0,2GMEL,1854.0,0.129605033,-37.7638749,145.1122762,51d0e341c497236240591dde18a7c6e142c0f00101f9014e59240000000000c00205,Templestowe Lower,Templestowe Lower,1.0,City of Manningham,Templestowe Lower,-37.779596,-37.748993,145.092825,145.131461
246,990.0,The Basin,4441.0,4542.0,4631.0,4722.0,4846.0,2GMEL,405.0,0.09119567699999999,-37.8556937,145.3214075,510da661f8482a6240595672045f87ed42c0f00101f90196f3240000000000c00205,The Basin,The Basin,1.0,City of Knox,The Basin,-37.867066,-37.844862,145.29887,145.338479
247,940.0,Thomastown,21485.0,21801.0,22478.0,23522.0,24745.0,2GMEL,3260.0,0.15173376800000002,-37.6832672,145.0081104,513dd8bd704220624059fa36b34c75d742c0f00101f901ae6b240000000000c00205,Thomastown,Thomastown,1.0,City of Whittlesea,Thomastown,-37.697344,-37.669103,144.970623,145.05236
248,109.0,Thornbury,19578.0,20764.0,21885.0,23038.0,24176.0,2GMEL,4598.0,0.23485545,-37.7582744,145.0051501,5147e28a302a206240596fb2b2220fe142c0f00101f901a759240000000000c00205,Thornbury,Thornbury,1.0,City of Darebin,Thornbury,-37.766631,-37.75027,144.979204,145.03224
249,132.0,Toorak,14036.0,14325.0,14623.0,14996.0,15441.0,2GMEL,1405.0,0.100099744,-37.8416141,145.0176215,519bc6f65a90206240591eadc502baeb42c0f00101f9014762240000000000c00205,Toorak,Toorak,1.0,City of Stonnington,Toorak,-37.851611,-37.83051,145.003186,145.032686
250,1101.0,Truganina,24628.0,37786.0,44678.0,47476.0,49228.0,2GMEL,24600.0,0.9988630829999999,-37.8089015,144.721139,51d89b18921317624059b91798158ae742c0f00101f9017c02250000000000c00205,Truganina,Truganina,1.0,City of Wyndham,Truganina,-37.868739,-37.734814,144.659455,144.769197
251,973.0,Tullamarine,6698.0,7015.0,7332.0,7689.0,8118.0,2GMEL,1420.0,0.212003583,-37.704658,144.8717732,51f0f0e890e51b624059b16ebc3b32da42c0f00101f901a0a8240000000000c00205,Tullamarine,Tullamarine,1.0,City of Hume,Tullamarine,-37.723807,-37.681817,144.847452,144.890804
252,1016.0,Upwey - Tecoma,10040.0,10022.0,10038.0,10096.0,10170.0,2GMEL,130.0,0.012948207,-37.9030367,145.3446796,512633839d072b6240593ccbe2b496f342c0f00101f90106fc240000000000c00205,Tecoma,Tecoma,1.0,Shire of Yarra Ranges,Tecoma,-37.923901,-37.88977,145.331816,145.351809
253,1004.0,Vermont,10896.0,11347.0,11746.0,12148.0,12569.0,2GMEL,1673.0,0.153542584,-37.8384616,145.1993471,51ae612b0d6126624059d679afb552eb42c0f00101f9014b97240000000000c00205,Vermont,Vermont,1.0,City of Whitehorse,Vermont,-37.847188,-37.830273,145.182264,145.216613
254,1005.0,Vermont South,12251.0,12647.0,13001.0,13376.0,13797.0,2GMEL,1546.0,0.12619378,-37.854386,145.1878065,513defc682022662405983143c855ced42c0f00101f901bc99240000000000c00205,Vermont South,Vermont South,1.0,City of Whitehorse,Vermont South,-37.865207,-37.845419,145.168849,145.210665
255,439.0,Viewbank,9509.0,9519.0,9536.0,9619.0,9755.0,2GMEL,246.0,0.025870228,-37.7399103,145.0932329,51290d90c3fb226240599d3c7661b5de42c0f00101f901ee4f240000000000c00205,Viewbank,Viewbank,1.0,City of Banyule,Viewbank,-37.754324,-37.72699,145.079813,145.108947
256,,Yallambie,9509.0,9519.0,9536.0,9619.0,9755.0,2GMEL,246.0,0.025870228,-37.7251655,145.0935218,51d10e6e21fe2262405900581d39d2dc42c0f00101f9015e58240000000000c00205,Yallambie,Yallambie,1.0,City of Banyule,Yallambie,-37.735223,-37.718457,145.078404,145.112149
257,941.0,Wallan,16747.0,22918.0,33084.0,47161.0,64025.0,2GMEL,47278.0,2.823072789,-37.4138855,144.9774549,51149a7f4f471f624059f1643733fab442c0f00101f90157fc240000000000c00207,Wallan VIC 3756,Wallan VIC 3756,1.0,Shire of Mitchell,,,,,
258,1017.0,Seville,7884.0,8099.0,8334.0,8580.0,8846.0,2GMEL,962.0,0.12201928,-37.7782042,145.4594001,51efa8d667b32e6240590f4efa319ce342c0f00101f9011817250000000000c00205,Seville,Seville,1.0,Shire of Yarra Ranges,Seville,-37.828789,-37.767475,145.44051,145.507739
259,985.0,Wantirna,14425.0,14927.0,15621.0,16220.0,16808.0,2GMEL,2383.0,0.165199307,-37.8523357,145.2259721,51df69d7293b276240594c5b125619ed42c0f00101f901f99a240000000000c00205,Wantirna,Wantirna,1.0,City of Knox,Wantirna,-37.868975,-37.837871,145.20043,145.2485299
260,986.0,Wantirna South,18580.0,19098.0,20423.0,21628.0,22618.0,2GMEL,4038.0,0.217330463,-37.8737902,145.2217475,51088f368e18276240595c48765bd8ef42c0f00101f901ba9d240000000000c00205,Wantirna South,Wantirna South,1.0,City of Knox,Wantirna South,-37.889041,-37.85223,145.190855,145.254546
261,992.0,Warrandyte - Wonga Park,10613.0,10692.0,10805.0,10961.0,11158.0,2GMEL,545.0,0.051352115,-37.7367495,145.2737609,518e0d38a6c22862405914ecbfce4dde42c0f00101f901d09d240000000000c00205,Wonga Park,Wonga Park,1.0,City of Manningham,Wonga Park,-37.768537,-37.702391,145.23472,145.296968
262,440.0,Watsonia,9542.0,9725.0,9916.0,10172.0,10469.0,2GMEL,927.0,0.097149445,-37.7097848,145.0832709,51ac06bc27aa226240595599733adada42c0f00101f9015d58240000000000c00205,Watsonia,Watsonia,1.0,City of Banyule,Watsonia,-37.7181,-37.701804,145.074514,145.095581
263,450.0,Diamond Creek,14351.0,14788.0,15283.0,15803.0,16372.0,2GMEL,2021.0,0.140826423,-37.6669718,145.1587044,5167f73f1b1425624059582dfa545fd542c0f00101f901ac60240000000000c00205,Diamond Creek,Diamond Creek,1.0,Shire of Nillumbik,Diamond Creek,-37.691174,-37.630542,145.122051,145.182408
264,1102.0,Werribee - South,11776.0,17116.0,20836.0,24655.0,28856.0,2GMEL,17080.0,1.450407609,-37.939627,144.697546,51942efd4b521662405924b891b245f842c0f00101f9014418250000000000c00205,Werribee South,Werribee South,1.0,City of Wyndham,Werribee South,-37.975098,-37.89605,144.657438,144.742765
265,,Werribee,24059.0,36529.0,50140.0,64496.0,79249.0,2GMEL,55190.0,2.2939440540000002,-37.9008141,144.6616976,51effa71a02c1562405949a35de04df342c0f00101f9014518250000000000c00205,Werribee,Werribee,1.0,City of Wyndham,Werribee,-37.945272,-37.870364,144.578968,144.718944
266,1086.0,West Footscray,12058.0,13202.0,14050.0,14801.0,15593.0,2GMEL,3535.0,0.293166363,-37.8005584,144.8710808,518d85d7e4df1b624059e04499b278e642c0f00101f90160a9240000000000c00205,West Footscray,West Footscray,1.0,City of Maribyrnong,West Footscray,-37.813705,-37.789486,144.859906,144.886621
267,119.0,West Melbourne,40181.0,62833.0,73594.0,78632.0,83245.0,2GMEL,43064.0,1.07175033,-37.808747,144.9238207,51c5bb6df08f1d6240597ade8d0585e742c0f00101f9019997240000000000c00205,West Melbourne,West Melbourne,1.0,City of Melbourne,West Melbourne,-37.822821,-37.798256,144.905455,144.956446
268,1062.0,Wheelers Hill,20880.0,21329.0,21851.0,22458.0,23150.0,2GMEL,2270.0,0.108716475,-37.9103266,145.1895175,51a11001871026624059e5d6ff9485f442c0f00101f901a1a8240000000000c00205,Wheelers Hill,Wheelers Hill,1.0,City of Monash,Wheelers Hill,-37.924399,-37.890251,145.160558,145.208389
269,942.0,Whittlesea,8436.0,10095.0,19163.0,32193.0,44864.0,2GMEL,36428.0,4.3181602660000005,-37.5121301,145.1177321,5110e61b76c4236240590b66a77a8dc142c0f00101f9016af9240000000000c00207,Melbourne VIC 3757,Melbourne VIC 3757,1.0,City of Whittlesea,,,,,
270,1081.0,Williamstown,16389.0,17614.0,18513.0,19323.0,20139.0,2GMEL,3750.0,0.228812008,-37.8611788,144.8898569,51d7732db5791c62405917015f1b3bee42c0f00101f901a1a9240000000000c00205,Williamstown,Williamstown,1.0,City of Hobsons Bay,Williamstown,-37.872963,-37.849297,144.851647,144.918867
271,950.0,Wollert,9493.0,21820.0,36732.0,51065.0,63746.0,2GMEL,54253.0,5.7150531970000005,-37.5939889,145.0337333,512889db571421624059f0d709d407cc42c0f00101f9019d9a240000000000c00205,Wollert,Wollert,1.0,City of Whittlesea,Wollert,-37.624492,-37.557292,144.946461,145.064422
272,1103.0,Wyndham Vale,24270.0,33524.0,44369.0,55077.0,65947.0,2GMEL,41677.0,1.717222909,-37.8868742,144.624117,5116fc36c4f8136240594555021885f142c0f00101f901d82d250000000000c00205,Wyndham Vale,Wyndham Vale,1.0,City of Wyndham,Wyndham Vale,-37.901807,-37.81607,144.559144,144.653784
273,1008.0,Yarra Glen,14106.0,15091.0,15634.0,16213.0,16814.0,2GMEL,2708.0,0.191975046,-37.6573475,145.3743964,51afb7280efb2b624059be4d7ff623d442c0f00101f9018ffb240000000000c00205,Yarra Glen,Yarra Glen,1.0,Shire of Yarra Ranges,Yarra Glen,-37.68289,-37.616992,145.330366,145.426451
274,1087.0,Yarraville,15656.0,17009.0,18638.0,20269.0,22077.0,2GMEL,6421.0,0.41013030100000003,-37.8180051,144.8819389,513f92edd7381c624059093b2064b4e842c0f00101f901b1a5240000000000c00205,Yarraville,Yarraville,1.0,City of Maribyrnong,Yarraville,-37.826955,-37.809214,144.857752,144.906652
275,,Greenvale,,,,,,,,,-37.6347957,144.8027227,51380884e7af196240591a9249fc40d142c0f00101f90197fb240000000000c00205,Bulla,Bulla,1.0,City of Hume,Bulla,-37.676812,-37.582626,144.759968,144.836363
287,,Suburb_geoapify,,,,,,,50000.0,1.0,-37.9008141,144.6616976,,,,1.0,Station,,,,,
288,,Suburb_geoapify,,,,,,,50000.0,1.0,-37.7893319,144.8342699,,,,1.0,Station,,,,,
289,,Suburb_geoapify,,,,,,,50000.0,1.0,-37.6764488,144.8365383,,,,1.0,Station,,,,,
290,,Suburb_geoapify,,,,,,,50000.0,1.0,-37.6832769,144.9323037,,,,1.0,Station,,,,,
291,,Suburb_geoapify,,,,,,,50000.0,1.0,-37.7052065,144.9696144,,,,1.0,Station,,,,,
292,,Suburb_geoapify,,,,,,,50000.0,1.0,-37.7123767,145.0074935,,,,1.0,Station,,,,,
293,,Suburb_geoapify,,,,,,,50000.0,1.0,-37.6982468,145.0596757,,,,1.0,Station,,,,,
294,,Suburb_geoapify,,,,,,,50000.0,1.0,-37.7524788,145.0701284,,,,1.0,Station,,,,,
295,,Suburb_geoapify,,,,,,,50000.0,1.0,-37.7848299,145.1238431,,,,1.0,Station,,,,,
296,,Suburb_geoapify,,,,,,,50000.0,1.0,-37.8215116,145.1261267,,,,1.0,Station,,,,,
297,,Suburb_geoapify,,,,,,,50000.0,1.0,-37.849578,145.1113915,,,,1.0,Station,,,,,
298,,Suburb_geoapify,,,,,,,50000.0,1.0,-37.8816255,145.1681838,,,,1.0,Station,,,,,
299,,Suburb_geoapify,,,,,,,50000.0,1.0,-37.9051019,145.1381258,,,,0.81,Station,,,,,
300,,Suburb_geoapify,,,,,,,50000.0,1.0,-37.9173212,145.1304242,,,,1.0,Station,,,,,
301,,Suburb_geoapify,,,,,,,50000.0,1.0,-37.9634181,145.0615668,,,,1.0,Station,,,,,
